,city,school_name,school_rating,school_address,school_url,school_type,school_grades,school_total_students,school_teacher_ratio,school_district,English,Math,Science,pre_k_school,elementary_school,middle_school,high_school,ratio_bins,lat,lon,altitude,Asian,Black,Filipino,Hispanic,Native American,Pacific Islander,Two or more races,Unspecified,White
0,Lakewood,Cleveland Elementary School,9,"4760 Hackett Avenue, Lakewood, CA, 90713",https://www.greatschools.org/california/lakewood/2552-Cleveland-Elementary-School/,Public district,K-5,469.0,21:1,Long Beach Unified School District,77.0,65.0,41.0,False,True,False,False,21-30,33.84413263636364,-118.10669806060606,0.0,4%,6%,5%,41%,<1%,<1%,6%,4%,34%
1,Lakewood,Odyssey Stem Academy,8,"3701 Michelson Street, Lakewood, CA, 90712",https://www.greatschools.org/california/lakewood/32629-Odyssey-Stem-Academy/,Public district,9-12,136.0,Unknown,Paramount Unified School District,77.0,14.0,44.0,False,False,False,True,Unknown,33.857026688246584,-118.1476788566359,0.0,,5%,,91%,,1%,,1%,2%
2,Lakewood,Stephen Foster Elementary School,7,"5223 Bigelow Street, Lakewood, CA, 90712",https://www.greatschools.org/california/lakewood/1540-Stephen-Foster-Elementary-School/,Public district,K-6,688.0,30:1,Bellflower Unified School District,57.0,44.0,43.0,False,True,False,False,21-30,33.8580752,-118.1309086,0.0,7%,9%,6%,53%,1%,1%,3%,1%,19%
3,Lakewood,Gompers K-8,7,"5206 Briercrest Avenue, Lakewood, CA, 90713",https://www.greatschools.org/california/lakewood/2562-Gompers-K-8/,Public district,K-8,700.0,24:1,Long Beach Unified School District,52.0,45.0,25.0,False,True,True,False,21-30,33.85228920275071,-118.12304118714862,0.0,7%,9%,2%,51%,<1%,1%,5%,4%,21%
4,Lakewood,Holmes Elementary School,7,"5020 Barlin Avenue, Lakewood, CA, 90712",https://www.greatschools.org/california/lakewood/2568-Holmes-Elementary-School/,Public district,K-5,383.0,20:1,Long Beach Unified School District,51.0,43.0,24.0,False,True,False,False,16-20,33.8495001,-118.14789455,0.0,6%,36%,5%,34%,,2%,7%,5%,5%
5,Lakewood,Macarthur Elementary School,7,"6011 Centralia Street, Lakewood, CA, 90713",https://www.greatschools.org/california/lakewood/2585-Macarthur-Elementary-School/,Public district,K-5,374.0,25:1,Long Beach Unified School District,59.0,53.0,38.0,False,True,False,False,21-30,33.839603016067954,-118.11458674004837,0.0,5%,9%,3%,45%,<1%,1%,9%,4%,24%
6,Lakewood,Madison Elementary School,7,"2801 Bomberry Street, Lakewood, CA, 90712",https://www.greatschools.org/california/lakewood/2586-Madison-Elementary-School/,Public district,K-5,357.0,22:1,Long Beach Unified School District,60.0,49.0,38.0,False,True,False,False,21-30,33.838556660582746,-118.15879148745206,0.0,13%,15%,4%,43%,,3%,8%,4%,10%
7,Lakewood,Intensive Learning Center,6,"4718 Michelson Street, Lakewood, CA, 90712",https://www.greatschools.org/california/lakewood/12653-Intensive-Learning-Center/,Public district,K-6,761.0,25:1,Bellflower Unified School District,49.0,32.0,39.0,False,True,False,False,21-30,33.85726227272727,-118.13704954545454,0.0,5%,19%,4%,60%,1%,,3%,,9%
8,Lakewood,Palms Elementary School,6,"12445 207th Street, Lakewood, CA, 90715",https://www.greatschools.org/california/lakewood/1425-Palms-Elementary-School/,Public district,K-6,657.0,27:1,Abc Unified School District,45.0,37.0,39.0,False,True,False,False,21-30,33.842414,-118.06627475,0.0,5%,16%,10%,58%,,1%,2%,1%,7%
9,Lakewood,Riley Elementary School,6,"3319 Sandwood Street, Lakewood, CA, 90712",https://www.greatschools.org/california/lakewood/2599-Riley-Elementary-School/,Public district,K-5,383.0,21:1,Long Beach Unified School District,47.0,38.0,26.0,False,True,False,False,21-30,33.843944175057544,-118.1529083779876,0.0,8%,15%,5%,54%,1%,1%,8%,,8%
10,Lakewood,Aloha Elementary School,5,"11737 214th Street, Lakewood, CA, 90715",https://www.greatschools.org/california/lakewood/1404-Aloha-Elementary-School/,Public district,K-6,356.0,24:1,Abc Unified School District,37.0,25.0,13.0,False,True,False,False,21-30,33.83512817118265,-118.08412585572933,0.0,2%,20%,7%,57%,,3%,6%,1%,4%
11,Lakewood,Artesia High School,5,"12108 Del Amo Boulevard, Lakewood, CA, 90715",https://www.greatschools.org/california/lakewood/1405-Artesia-High-School/,Public district,9-12,1431.0,19:1,Abc Unified School District,51.0,16.0,20.0,False,False,False,True,16-20,33.845984638119866,-118.07415922600411,0.0,5%,8%,8%,72%,<1%,1%,1%,1%,4%
12,Lakewood,Willow Elementary School,5,"11733 205th Street, Lakewood, CA, 90715",https://www.greatschools.org/california/lakewood/1431-Willow-Elementary-School/,Public district,K-6,434.0,27:1,Abc Unified School District,43.0,21.0,12.0,False,True,False,False,21-30,33.84429228571429,-118.0833919387755,0.0,7%,7%,5%,76%,,1%,1%,2%,1%
13,Lakewood,Esther Lindstrom Elementary School,5,"5900 Canehill Avenue, Lakewood, CA, 90713",https://www.greatschools.org/california/lakewood/1544-Esther-Lindstrom-Elementary-School/,Public district,K-6,795.0,27:1,Bellflower Unified School District,42.0,33.0,34.0,False,True,False,False,21-30,33.86157705,-118.10977310857923,0.0,6%,14%,8%,43%,1%,1%,7%,,20%
14,Lakewood,Mayfair High School,5,"6000 Woodruff Avenue, Lakewood, CA, 90713",https://www.greatschools.org/california/lakewood/1545-Mayfair-High-School/,Public district,7-12,2889.0,27:1,Bellflower Unified School District,48.0,19.0,25.0,False,False,True,True,21-30,33.862722,-118.116812,0.0,5%,15%,6%,53%,<1%,1%,4%,1%,15%
15,Lakewood,Lakewood High School,5,"4400 Briercrest Avenue, Lakewood, CA, 90713",https://www.greatschools.org/california/lakewood/2578-Lakewood-High-School/,Public district,9-12,3224.0,23:1,Long Beach Unified School District,48.0,12.0,19.0,False,False,False,True,21-30,33.83783373443825,-118.12314879613112,0.0,8%,19%,5%,48%,<1%,2%,2%,3%,13%
16,Lakewood,Melbourne (Ella P.) Elementary School,4,"21314 Claretta Avenue, Lakewood, CA, 90715",https://www.greatschools.org/california/lakewood/1422-Melbourne-Ella-P.-Elementary-School/,Public district,K-6,458.0,25:1,Abc Unified School District,34.0,16.0,12.0,False,True,False,False,21-30,33.83599371468603,-118.0675883141315,0.0,1%,1%,1%,93%,<1%,1%,,1%,2%
17,Lakewood,Craig Williams Elementary School,4,"6144 Clark Avenue, Lakewood, CA, 90712",https://www.greatschools.org/california/lakewood/1550-Craig-Williams-Elementary-School/,Public district,K-6,562.0,32:1,Bellflower Unified School District,31.0,17.0,14.0,False,True,False,False,30+,33.867218638066966,-118.13374764272938,0.0,5%,14%,5%,67%,<1%,2%,2%,,5%
18,Lakewood,Hoover Middle School,4,"3501 Country Club Drive, Lakewood, CA, 90712",https://www.greatschools.org/california/lakewood/2569-Hoover-Middle-School/,Public district,6-8,758.0,26:1,Long Beach Unified School District,40.0,15.0,17.0,False,False,True,False,21-30,33.83980566441134,-118.15146396915335,0.0,8%,21%,4%,53%,,3%,4%,2%,5%
19,Lakewood,Tutor Time Child Care Learning Center,Unrated,"6504 E S ST, Lakewood, CA, 90713",https://www.greatschools.org/california/lakewood/15494-Tutor-Time-Child-Care-Learning-Center/,Private,PK,34.0,Unknown,Private,,,,True,False,False,False,Unknown,33.8602379,-118.1466302,0.0,,,,,,,,,
20,Lakewood,Aloha Head Start-State Pre-School,Unrated,"11737 214th St, Lakewood, CA, 90715",https://www.greatschools.org/california/lakewood/19771-Aloha-Head-Start-State-Pre-School/,Private,PK,,Unknown,Private,,,,True,False,False,False,Unknown,33.83512817118265,-118.08412585572933,0.0,,,,,,,,,
21,Lakewood,Mothers At Work Children's Center,Unrated,"5510 Clark Avenue, Lakewood, CA, 90712",https://www.greatschools.org/california/lakewood/19777-Mothers-At-Work-Childrens-Center/,Private,PK-K,,Unknown,Private,,,,True,False,False,False,Unknown,33.85666327969541,-118.1338622618796,0.0,,,,,,,,,
22,Lakewood,Educare Preschool,Unrated,"4300 Bellflower Boulevard, Lakewood, CA, 90713",https://www.greatschools.org/california/long-beach/24238-Educare-Preschool/,Private,PK-K,44.0,Unknown,Private,,,,True,False,False,False,Unknown,33.836216,-118.125029,0.0,,,,,,,,,
23,Lakewood,Educare Preschool & Kindergarten,Unrated,"5730 South Street, Lakewood, CA, 90713",https://www.greatschools.org/california/lakewood/24239-Educare-Preschool--Kindergarten/,Private,PK-K,42.0,Unknown,Private,,,,True,False,False,False,Unknown,33.859035536306266,-118.11971428144662,0.0,,,,,,,,,
24,Lakewood,Smith's Family Day Care,Unrated,"5737 Canehill Avenue, Lakewood, CA, 90713",https://www.greatschools.org/california/lakewood/27325-Smiths-Family-Day-Care/,Private,PK,,Unknown,Private,,,,True,False,False,False,Unknown,33.86030230471136,-118.11115333609872,0.0,,,,,,,,,
25,Lakewood,Buena Vista High School,Unrated,"3717 Michelson Street, Lakewood, CA, 90712",https://www.greatschools.org/california/lakewood/2769-Buena-Vista-High-School/,Public district,9-12,197.0,9:1,Paramount Unified School District,18.0,1.0,5.0,False,False,False,True,<10,33.857246,-118.14714,0.0,,12%,,84%,,,2%,,2%
26,Lakewood,Riley Child Development Center,Unrated,"3319 Sandwood Street, Lakewood, CA, 90712",https://www.greatschools.org/california/lakewood/27804-Riley-Child-Development-Center/,Private,PK,,Unknown,Private,,,,True,False,False,False,Unknown,33.843944175057544,-118.1529083779876,0.0,,,,,,,,,
27,Lakewood,Weingart-Lakewood Ymca,Unrated,"5835 Carson Street, Lakewood, CA, 90713",https://www.greatschools.org/california/lakewood/27892-Weingart-Lakewood-Ymca/,Private,PK,,Unknown,Private,,,,True,False,False,False,Unknown,33.8313484,-118.0849102,0.0,,,,,,,,,
28,Lakewood,Covenant Kids Pre-School,Unrated,"21209 Claretta Avenue, Lakewood, CA, 90716",https://www.greatschools.org/california/lakewood/29408-Covenant-Kids-Pre-School/,Private,PK,,Unknown,Private,,,,True,False,False,False,Unknown,33.83711284292853,-118.06773482450492,0.0,,,,,,,,,
29,Lakewood,Ymca Glb Madison Site,Unrated,"2801 Bomberry Street, Lakewood, CA, 90712",https://www.greatschools.org/california/lakewood/29426-Ymca-Glb-Madison-Site/,Private,PK-K,,Unknown,Private,,,,True,False,False,False,Unknown,33.838556660582746,-118.15879148745206,0.0,,,,,,,,,
30,Lakewood,Spectrum Center- Long Beach Elementary,Unrated,"6011 Centralia Street, Lakewood, CA, 90713",https://www.greatschools.org/california/lakewood/33155-Spectrum-Center--Long-Beach-Elementary/,Private,K-12,103.0,Unknown,Private,,,,False,True,True,True,Unknown,33.839603016067954,-118.11458674004837,0.0,,,,,,,,,
31,Lakewood,St. Pancratius Parish School,Unrated,"3601 Saint Pancratius Place, Lakewood, CA, 90712",https://www.greatschools.org/california/lakewood/8004-St.-Pancratius-Parish-School/,Private,K-8,151.0,Unknown,Private,,,,False,True,True,False,Unknown,33.8590728,-118.149209,0.0,,,,,,,,,
32,Lakewood,Saint Joseph High School,Unrated,"5825 Woodruff Avenue, Lakewood, CA, 90713",https://www.greatschools.org/california/lakewood/8020-Saint-Joseph-High-School/,Private,9-12,523.0,Unknown,Private,,,,False,False,False,True,Unknown,33.860896229000936,-118.11678590972,0.0,,,,,,,,,
33,Lakewood,St. Timothy Lutheran School,Unrated,"4645 Woodruff Ave, Lakewood, CA, 90713",https://www.greatschools.org/california/lakewood/9520-St.-Timothy-Lutheran-School/,Private,PK-3,,Unknown,Private,,,,True,True,False,False,Unknown,33.84153368093977,-118.11609755765394,0.0,,,,,,,,,
34,Cerritos,Whitney High School,10,"16800 Shoemaker Avenue, Cerritos, CA, 90703",https://www.greatschools.org/california/cerritos/1430-Whitney-High-School/,Public district,7-12,1009.0,23:1,Abc Unified School District,99.0,98.0,93.0,False,False,True,True,21-30,33.8777826,-118.05355453821169,0.0,59%,1%,17%,15%,<1%,<1%,2%,2%,4%
35,Cerritos,Wittmann (Helen) Elementary School,10,"16801 Yvette Avenue, Cerritos, CA, 90703",https://www.greatschools.org/california/cerritos/1432-Wittmann-Helen-Elementary-School/,Public district,K-6,620.0,26:1,Abc Unified School District,87.0,74.0,74.0,False,True,False,False,21-30,33.878112,-118.057171,0.0,43%,9%,14%,25%,,,4%,,6%
36,Cerritos,Carmenita Middle School,9,"13418 Moore St, Cerritos, CA 90703",https://www.greatschools.org/california/cerritos/1408-Carmenita-Middle-School/,Public district,7-8,679.0,27:1,Abc Unified School District,77.0,60.0,60.0,False,False,True,False,21-30,33.88195092307693,-118.0456346153846,0.0,43%,6%,13%,26%,<1%,<1%,3%,2%,7%
37,Cerritos,Cerritos Elementary School,9,"13600 183rd Street, Cerritos, CA, 90703",https://www.greatschools.org/california/cerritos/1410-Cerritos-Elementary-School/,Public district,K-6,673.0,27:1,Abc Unified School District,85.0,73.0,66.0,False,True,False,False,21-30,33.8650147,-118.0411752,0.0,54%,5%,11%,18%,1%,<1%,3%,2%,6%
38,Cerritos,Cerritos High School,9,"12500 183rd Street, Cerritos, CA, 90703",https://www.greatschools.org/california/cerritos/1411-Cerritos-High-School/,Public district,9-12,2177.0,24:1,Abc Unified School District,81.0,57.0,46.0,False,False,False,True,21-30,33.86575815151515,-118.06590183838384,0.0,40%,6%,17%,26%,<1%,1%,3%,1%,6%
39,Cerritos,Gonsalves (Joe A.) Elementary School,9,"13650 Park Street, Cerritos, CA, 90703",https://www.greatschools.org/california/cerritos/1416-Gonsalves-Joe-A.-Elementary-School/,Public district,K-6,642.0,26:1,Abc Unified School District,87.0,79.0,73.0,False,True,False,False,21-30,33.87863704081633,-118.04128189795918,0.0,63%,5%,8%,15%,1%,<1%,1%,,7%
40,Cerritos,Leal (Frank C.) Elementary School,9,"12920 Droxford Street, Cerritos, CA, 90703",https://www.greatschools.org/california/cerritos/1421-Leal-Frank-C.-Elementary-School/,Public district,K-6,766.0,26:1,Abc Unified School District,89.0,79.0,78.0,False,True,False,False,21-30,33.8610743877551,-118.05668863265306,0.0,52%,5%,14%,17%,1%,1%,4%,1%,5%
41,Cerritos,Nixon (Patricia) Elementary School,9,"19600 Jacob Avenue, Cerritos, CA, 90703",https://www.greatschools.org/california/cerritos/1424-Nixon-Patricia-Elementary-School/,Public district,K-6,785.0,27:1,Abc Unified School District,75.0,67.0,67.0,False,True,False,False,21-30,33.852771,-118.07646,0.0,17%,9%,18%,39%,<1%,1%,5%,2%,9%
42,Cerritos,Stowers(Cecil B.) Elementary School,9,"13350 Beach Street, Cerritos, CA, 90703",https://www.greatschools.org/california/cerritos/1427-StowersCecil-B.-Elementary-School/,Public district,K-6,670.0,29:1,Abc Unified School District,71.0,65.0,61.0,False,True,False,False,21-30,33.8764334872129,-118.04749864999766,0.0,37%,5%,13%,31%,<1%,<1%,4%,3%,7%
43,Cerritos,Bragg Elementary School,8,"11501 Bos Street, Cerritos, CA, 90703",https://www.greatschools.org/california/cerritos/1406-Bragg-Elementary-School/,Public district,K-6,655.0,27:1,Abc Unified School District,70.0,64.0,59.0,False,True,False,False,21-30,33.8561773,-118.08948485309236,0.0,17%,10%,25%,33%,<1%,1%,6%,2%,6%
44,Cerritos,Carver (Charles J.) Elementary School,8,"19200 Ely Avenue, Cerritos, CA, 90703",https://www.greatschools.org/california/cerritos/1409-Carver-Charles-J.-Elementary-School/,Public district,K-6,618.0,26:1,Abc Unified School District,70.0,53.0,46.0,False,True,False,False,21-30,33.856216,-118.068866,0.0,16%,14%,15%,45%,1%,<1%,3%,,6%
45,Cerritos,Gahr (Richard) High School,8,"11111 Artesia Boulevard, Cerritos, CA, 90703",https://www.greatschools.org/california/cerritos/1415-Gahr-Richard-High-School/,Public district,9-12,1927.0,23:1,Abc Unified School District,74.0,43.0,39.0,False,False,False,True,21-30,33.87487315,-118.09635804744636,0.0,14%,15%,12%,47%,<1%,1%,2%,1%,8%
46,Cerritos,Tetzlaff (Martin B.) Middle School,7,"12351 Del Amo Boulevard, Cerritos, CA, 90703",https://www.greatschools.org/california/cerritos/1428-Tetzlaff-Martin-B.-Middle-School/,Public district,7-8,646.0,25:1,Abc Unified School District,65.0,41.0,49.0,False,False,True,False,21-30,33.84619126339967,-118.06887051531696,0.0,19%,12%,17%,39%,<1%,<1%,4%,1%,8%
47,Cerritos,Haskell (Pliny Fisk) Middle School,6,"11525 Del Amo Boulevard, Cerritos, CA, 90703",https://www.greatschools.org/california/cerritos/1417-Haskell-Pliny-Fisk-Middle-School/,Public district,7-8,556.0,23:1,Abc Unified School District,52.0,37.0,32.0,False,False,True,False,21-30,33.84809565,-118.08785740960866,0.0,12%,13%,11%,54%,<1%,1%,3%,,6%
48,Cerritos,Juarez (Benito) Elementary School,5,"11939 Aclare Street, Cerritos, CA, 90703",https://www.greatschools.org/california/cerritos/1419-Juarez-Benito-Elementary-School/,Public district,K-6,339.0,22:1,Abc Unified School District,42.0,27.0,27.0,False,True,False,False,21-30,33.87451293877551,-118.07888342857144,0.0,8%,13%,10%,63%,,1%,1%,,4%
49,Cerritos,ABC Secondary (Alternative) School,Unrated,"13418 Moore St, Cerritos, CA 90703",https://www.greatschools.org/california/cerritos/11946-ABC-Secondary-Alternative-School/,Public district,7-12,82.0,68:1,Abc Unified School District,22.0,5.0,5.0,False,False,True,True,30+,33.88195092307693,-118.0456346153846,0.0,4%,11%,5%,74%,,,1%,,5%
50,Cerritos,Kindercare Learning Center,Unrated,"18727 Carmenita Road, Cerritos, CA, 90703",https://www.greatschools.org/california/cerritos/12805-Kindercare-Learning-Center/,Private,PK-K,118.0,Unknown,Private,,,,True,False,False,False,Unknown,33.86178879424042,-118.04635771717254,0.0,,,,,,,,,
51,Cerritos,Tracy (Wilbur) High (Continuation) School,Unrated,"12222 Cuesta Drive, Cerritos, CA, 90703",https://www.greatschools.org/california/cerritos/1429-Tracy-Wilbur-High-Continuation-School/,Public district,9-12,239.0,15:1,Abc Unified School District,11.0,1.0,5.0,False,False,False,True,10-15,33.87893981642205,-118.07201366210752,0.0,4%,10%,3%,72%,<1%,1%,,1%,9%
52,Cerritos,Fecc Children Academy,Unrated,"11330 E 166th St, Cerritos, CA, 90703",https://www.greatschools.org/california/cerritos/15210-Fecc-Children-Academy/,Private,PK-K,15.0,Unknown,Private,,,,True,False,False,False,Unknown,,,,,,,,,,,,
53,Cerritos,Cerritos Lane Pre-School,Unrated,"20223 Cabrillo Lane, Cerritos, CA, 90703",https://www.greatschools.org/california/cerritos/15529-Cerritos-Lane-Pre-School/,Private,PK,,Unknown,Private,,,,True,False,False,False,Unknown,33.84676549267495,-118.07981242605578,0.0,,,,,,,,,
54,Cerritos,Joy Pre-School,Unrated,"12429 195th Street, Cerritos, CA, 90703",https://www.greatschools.org/california/cerritos/17928-Joy-Pre-School/,Private,PK,,Unknown,Private,,,,True,False,False,False,Unknown,33.85352875962015,-118.06576613303912,0.0,,,,,,,,,
55,Cerritos,Calvarys Cross Chapel Pre-School,Unrated,"16705 Gridley Road, Cerritos, CA, 90703",https://www.greatschools.org/california/cerritos/17929-Calvarys-Cross-Chapel-Pre-School/,Private,PK,,Unknown,Private,,,,True,False,False,False,Unknown,33.879225,-118.09117,0.0,,,,,,,,,
56,Cerritos,Creative Care,Unrated,"18424 Bloomfield Ave, Cerritos, CA, 90703",https://www.greatschools.org/california/cerritos/18389-Creative-Care/,Private,K,,Unknown,Private,,,,True,False,False,False,Unknown,33.864532594377515,-118.06360908032129,0.0,,,,,,,,,
57,Cerritos,Willow Head Start,Unrated,"16700 Norwalk Boulevard, Cerritos, CA, 90703",https://www.greatschools.org/california/cerritos/19770-Willow-Head-Start/,Private,PK,,Unknown,Private,,,,True,False,False,False,Unknown,33.879699292929295,-118.07259387878788,0.0,,,,,,,,,
58,Cerritos,Palms State Pre-School,Unrated,"16700 Norwalk Boulevard, Cerritos, CA, 90703",https://www.greatschools.org/california/cerritos/19774-Palms-State-Pre-School/,Private,PK,,Unknown,Private,,,,True,False,False,False,Unknown,33.879699292929295,-118.07259387878788,0.0,,,,,,,,,
59,Cerritos,Melbourne Head Start-State Ps,Unrated,"16700 Norwalk Boulevard, Cerritos, CA, 90703",https://www.greatschools.org/california/cerritos/19775-Melbourne-Head-Start-State-Ps/,Private,PK,,Unknown,Private,,,,True,False,False,False,Unknown,33.879699292929295,-118.07259387878788,0.0,,,,,,,,,
60,Cerritos,Concordia Lutheran School,Unrated,"13633 183rd St, Cerritos, CA, 90703",https://www.greatschools.org/california/cerritos/24216-Concordia-Lutheran-School/,Private,"PK-5, 7",,Unknown,Private,,,,True,True,True,False,Unknown,33.86606710426147,-118.04119647118804,0.0,,,,,,,,,
61,Cerritos,Valley Christian School System,Unrated,"10818 Artesia Boulevard, Cerritos, CA, 90703",https://www.greatschools.org/california/cerritos/24575-Valley-Christian-School-System/,Private,PK-12,1159.0,Unknown,Private,,,,True,True,True,True,Unknown,33.87285463265306,-118.10309740816326,0.0,,,,,,,,,
62,Cerritos,Yellow Brick Road Academy,Unrated,"11349 Abana St, Cerritos, CA, 90703",https://www.greatschools.org/california/cerritos/24603-Yellow-Brick-Road-Academy/,Private,PK-K,,Unknown,Private,,,,True,False,False,False,Unknown,33.87392993877551,-118.0915397755102,0.0,,,,,,,,,
63,Cerritos,Broman School,Unrated,"13545 Acoro Place, Cerritos, CA, 90703",https://www.greatschools.org/california/cerritos/25943-Broman-School/,Private,1-12,6.0,Unknown,Private,,,,False,True,True,True,Unknown,33.87215324489796,-118.04351540816327,0.0,,,,,,,,,
64,Cerritos,Heritage Park Tot Lot,Unrated,"18826 Rochelle Avenue, Cerritos, CA, 90703",https://www.greatschools.org/california/cerritos/28990-Heritage-Park-Tot-Lot/,Private,PK,,Unknown,Private,,,,True,False,False,False,Unknown,33.86066344966443,-118.06527724161074,0.0,,,,,,,,,
65,Cerritos,Carlyle Family Day Care,Unrated,"17008 Maurice Avenue, Cerritos, CA, 90703",https://www.greatschools.org/california/cerritos/29694-Carlyle-Family-Day-Care/,Private,PK,,Unknown,Private,,,,True,False,False,False,Unknown,33.87662416582915,-118.05565923115576,0.0,,,,,,,,,
66,Cerritos,Sonshine Ps-Cerritos Ch Nzrne,Unrated,"12229 Del Amo Boulevard, Cerritos, CA, 90703",https://www.greatschools.org/california/cerritos/30471-Sonshine-Ps-Cerritos-Ch-Nzrne/,Private,PK,,Unknown,Private,,,,True,False,False,False,Unknown,33.84617153755472,-118.07137028292532,0.0,,,,,,,,,
67,Cerritos,Valley Christian Schools,Unrated,"10818 Artesia Boulevard, Cerritos, CA, 90703",https://www.greatschools.org/california/cerritos/33680-Valley-Christian-Schools/,Private,PK-12,1161.0,Unknown,Private,,,,True,True,True,True,Unknown,33.87285463265306,-118.10309740816326,0.0,,,,,,,,,
68,Cerritos,Valley Christian High School,Unrated,"17700 Dumont Avenue, Cerritos, CA, 90703",https://www.greatschools.org/california/cerritos/8544-Valley-Christian-High-School/,Private,9-12,581.0,Unknown,Private,,,,False,False,False,True,Unknown,33.8705181,-118.103092621271,0.0,,,,,,,,,
69,Cerritos,Valley Christian Middle School,Unrated,"18100 Dumont Avenue, Cerritos, CA, 90703",https://www.greatschools.org/california/cerritos/9067-Valley-Christian-Middle-School/,Private,7-8,183.0,Unknown,Private,,,,False,False,True,False,Unknown,33.86720865,-118.10292309493684,0.0,,,,,,,,,
70,Cerritos,Concordia Lutheran Preschool,Unrated,"13633 183rd Street, Cerritos, CA, 90703",https://www.greatschools.org/california/cerritos/9369-Concordia-Lutheran-Preschool/,Private,PK,,Unknown,Private,,,,True,False,False,False,Unknown,33.86606710426147,-118.04119647118804,0.0,,,,,,,,,
71,LongBeach,Prisk Elementary School,10,"2375 Fanwood Avenue, Long Beach, CA, 90815",https://www.greatschools.org/california/long-beach/2597-Prisk-Elementary-School/,Public district,K-5,567.0,22:1,Long Beach Unified School District,80.0,74.0,77.0,False,True,False,False,21-30,33.80066231313131,-118.11564026262626,0.0,6%,7%,4%,29%,,1%,11%,6%,36%
72,LongBeach,Eunice Sato Academy Of Math & Science,10,"1100 Iroquois Avenue, Long Beach, CA, 90815",https://www.greatschools.org/california/long-beach/32045-Eunice-Sato-Academy-Of-Math--Science/,Public district,9-12,402.0,19:1,Long Beach Unified School District,96.0,77.0,60.0,False,False,False,True,16-20,33.78093842211055,-118.10607595477386,0.0,15%,7%,10%,32%,<1%,1%,2%,10%,23%
73,LongBeach,Gant Elementary School,9,"5808 E Marita St, Long Beach, CA, 90815",https://www.greatschools.org/california/long-beach/2560-Gant-Elementary-School/,Public district,K-5,562.0,23:1,Long Beach Unified School District,82.0,74.0,60.0,False,True,False,False,21-30,33.7911433,-118.1139438,0.0,9%,6%,3%,27%,<1%,<1%,10%,5%,40%
74,LongBeach,Henry K-8,9,"3720 Canehill Avenue, Long Beach, CA, 90808",https://www.greatschools.org/california/long-beach/2566-Henry-K-8/,Public district,K-5,846.0,26:1,Long Beach Unified School District,65.0,59.0,42.0,False,True,False,False,21-30,33.825590530612246,-118.11033934693876,0.0,2%,4%,1%,64%,<1%,<1%,7%,3%,19%
75,LongBeach,Kettering Elementary School,9,"550 Silvera Avenue, Long Beach, CA, 90803",https://www.greatschools.org/california/long-beach/2576-Kettering-Elementary-School/,Public district,K-5,333.0,22:1,Long Beach Unified School District,78.0,73.0,60.0,False,True,False,False,21-30,33.772684636937214,-118.10653710746142,0.0,10%,10%,1%,34%,<1%,,12%,4%,29%
76,LongBeach,Los Cerritos Elementary School,9,"515 West San Antonio Drive, Long Beach, CA, 90807",https://www.greatschools.org/california/long-beach/2583-Los-Cerritos-Elementary-School/,Public district,K-5,527.0,26:1,Long Beach Unified School District,74.0,65.0,60.0,False,True,False,False,21-30,33.82800471428571,-118.19893128571428,0.0,9%,17%,9%,38%,<1%,1%,10%,2%,14%
77,LongBeach,Naples Elementary School,9,"101 Venetia Dr, Long Beach, CA, 90803",https://www.greatschools.org/california/long-beach/2594-Naples-Elementary-School/,Public district,K-5,347.0,23:1,Long Beach Unified School District,87.0,79.0,80.0,False,True,False,False,21-30,33.755602,-118.128319,0.0,5%,1%,1%,16%,,,15%,5%,57%
78,LongBeach,Newcomb Academy,9,"3351 Val Verde Avenue, Long Beach, CA, 90808",https://www.greatschools.org/california/long-beach/2595-Newcomb-Academy/,Public district,K-8,791.0,22:1,Long Beach Unified School District,83.0,72.0,63.0,False,True,True,False,21-30,33.81598096969697,-118.07900006060606,0.0,6%,7%,2%,35%,<1%,1%,7%,6%,36%
79,LongBeach,Fremont Elementary School,8,"4000 East 4th Street, Long Beach, CA, 90814",https://www.greatschools.org/california/long-beach/2559-Fremont-Elementary-School/,Public district,K-5,501.0,26:1,Long Beach Unified School District,73.0,66.0,66.0,False,True,False,False,21-30,33.7713651,-118.14481850925826,0.0,6%,5%,1%,30%,<1%,<1%,12%,7%,39%
80,LongBeach,IVA - Intellectual Virtues Academy Middle School,8,"3601 Linden Avenue, Long Beach, CA, 90807",https://www.greatschools.org/california/long-beach/26519-IVA---Intellectual-Virtues-Academy-Middle-School/,Public charter,6-8,231.0,23:1,Long Beach Unified School District,69.0,55.0,57.0,False,False,True,False,21-30,33.822273,-118.186548,0.0,5%,10%,2%,43%,,,9%,1%,30%
81,LongBeach,Ernest S. McBride Sr. High School,8,"7025 Parkcrest Street, Long Beach, CA, 90808",https://www.greatschools.org/california/long-beach/27235-Ernest-S.-McBride-Sr.-High-School/,Public district,9-12,744.0,21:1,Long Beach Unified School District,73.0,31.0,15.0,False,False,False,True,21-30,33.82952345454545,-118.0966703939394,0.0,8%,8%,4%,45%,<1%,1%,3%,8%,23%
82,LongBeach,Helen Keller Middle,8,"3684 Karen Ave, Long Beach, CA 90808",https://www.greatschools.org/california/long-beach/32046-Helen-Keller-Middle/,Public district,6-8,358.0,26:1,Long Beach Unified School District,68.0,45.0,37.0,False,False,True,False,21-30,33.825025714285715,-118.09540842857142,0.0,3%,4%,<1%,73%,1%,1%,1%,4%,13%
83,LongBeach,Burcham Elementary School,7,"5610 East Monlaco Road, Long Beach, CA, 90808",https://www.greatschools.org/california/long-beach/2546-Burcham-Elementary-School/,Public district,K-5,430.0,23:1,Long Beach Unified School District,73.0,60.0,40.0,False,True,False,False,21-30,33.822129751632986,-118.12295941166532,0.0,5%,6%,2%,42%,<1%,1%,9%,2%,33%
84,LongBeach,Carver Elementary School,7,"3055 Rutgers Ave, Long Beach, CA 90808",https://www.greatschools.org/california/long-beach/2551-Carver-Elementary-School/,Public district,K-5,529.0,25:1,Long Beach Unified School District,69.0,62.0,49.0,False,True,False,False,21-30,33.8145261,-118.1292675,0.0,4%,5%,3%,29%,<1%,<1%,12%,3%,44%
85,LongBeach,Cubberley K-8,7,"3200 Monogram Avenue, Long Beach, CA, 90808",https://www.greatschools.org/california/long-beach/2554-Cubberley-K-8/,Public district,K-8,1004.0,23:1,Long Beach Unified School District,65.0,52.0,39.0,False,True,True,False,21-30,33.815256,-118.102591,0.0,6%,6%,2%,34%,<1%,1%,11%,6%,34%
86,LongBeach,Emerson Parkside Academy,7,"2625 Josie Avenue, Long Beach, CA, 90815",https://www.greatschools.org/california/long-beach/2557-Emerson-Parkside-Academy/,Public district,K-5,448.0,24:1,Long Beach Unified School District,71.0,52.0,50.0,False,True,False,False,21-30,33.80377736734694,-118.10538102040816,0.0,5%,5%,3%,32%,,<1%,6%,5%,44%
87,LongBeach,Longfellow Elementary School,7,"3800 Olive Avenue, Long Beach, CA, 90807",https://www.greatschools.org/california/long-beach/2582-Longfellow-Elementary-School/,Public district,K-5,990.0,27:1,Long Beach Unified School District,56.0,50.0,48.0,False,True,False,False,21-30,33.826825,-118.182565,0.0,11%,15%,4%,37%,<1%,2%,12%,3%,16%
88,LongBeach,Lowell Elementary School,7,"5201 East Broadway, Long Beach, CA, 90803",https://www.greatschools.org/california/long-beach/2584-Lowell-Elementary-School/,Public district,K-5,656.0,23:1,Long Beach Unified School District,67.0,60.0,49.0,False,True,False,False,21-30,33.764243,-118.131933,0.0,3%,3%,2%,21%,1%,<1%,7%,4%,59%
89,LongBeach,Marshall Academy Of The Arts,7,"5870 East Wardlow Road, Long Beach, CA, 90808",https://www.greatschools.org/california/long-beach/2588-Marshall-Academy-Of-The-Arts/,Public district,6-8,886.0,24:1,Long Beach Unified School District,65.0,47.0,34.0,False,False,True,False,21-30,33.81872840865371,-118.1175581431062,0.0,4%,10%,1%,46%,<1%,1%,4%,6%,28%
90,LongBeach,Rogers Middle School,7,"365 Monrovia Avenue, Long Beach, CA, 90803",https://www.greatschools.org/california/long-beach/2601-Rogers-Middle-School/,Public district,6-8,874.0,25:1,Long Beach Unified School District,71.0,53.0,44.0,False,False,True,False,21-30,33.767058899999995,-118.13209767382298,0.0,7%,5%,<1%,24%,<1%,1%,7%,6%,50%
91,LongBeach,Addams Elementary School,6,"5320 Pine Avenue, Long Beach, CA, 90805",https://www.greatschools.org/california/long-beach/2537-Addams-Elementary-School/,Public district,K-5,909.0,25:1,Long Beach Unified School District,34.0,27.0,18.0,False,True,False,False,21-30,33.8534986744186,-118.19163337209302,0.0,5%,15%,1%,74%,<1%,1%,2%,1%,1%
92,LongBeach,Bancroft Middle School,6,"5301 East Centralia Street, Long Beach, CA, 90808",https://www.greatschools.org/california/long-beach/2539-Bancroft-Middle-School/,Public district,6-8,935.0,25:1,Long Beach Unified School District,53.0,39.0,29.0,False,False,True,False,21-30,33.839651,-118.129302,0.0,9%,12%,2%,47%,<1%,2%,4%,3%,21%
93,LongBeach,Birney Elementary School,6,"710 West Spring Street, Long Beach, CA, 90806",https://www.greatschools.org/california/long-beach/2541-Birney-Elementary-School/,Public district,K-5,621.0,20:1,Long Beach Unified School District,48.0,42.0,24.0,False,True,False,False,16-20,33.81172909183673,-118.20044218367347,0.0,8%,20%,11%,50%,,3%,3%,3%,2%
94,LongBeach,Bixby Elementary School,6,"2159 Rutgers Ave, Long Beach, CA 90815",https://www.greatschools.org/california/long-beach/2542-Bixby-Elementary-School/,Public district,K-5,464.0,23:1,Long Beach Unified School District,58.0,39.0,36.0,False,True,False,False,21-30,33.7992643,-118.1326464,0.0,9%,10%,4%,41%,<1%,2%,9%,4%,21%
95,LongBeach,Franklin Classical Middle School,6,"540 Cerritos Avenue, Long Beach, CA, 90802",https://www.greatschools.org/california/long-beach/2558-Franklin-Classical-Middle-School/,Public district,6-8,1279.0,25:1,Long Beach Unified School District,41.0,22.0,15.0,False,False,True,False,21-30,33.77367078571429,-118.17807,0.0,9%,10%,<1%,77%,<1%,<1%,1%,1%,2%
96,LongBeach,Garfield Elementary School,6,"2240 Baltic Avenue, Long Beach, CA, 90810",https://www.greatschools.org/california/long-beach/2561-Garfield-Elementary-School/,Public district,K-5,706.0,21:1,Long Beach Unified School District,39.0,30.0,19.0,False,True,False,False,21-30,33.797886,-118.2131627755102,0.0,3%,9%,9%,76%,,1%,1%,1%,<1%
97,LongBeach,Hughes Middle School,6,"3846 California Avenue, Long Beach, CA, 90807",https://www.greatschools.org/california/long-beach/2571-Hughes-Middle-School/,Public district,6-8,1467.0,27:1,Long Beach Unified School District,50.0,38.0,28.0,False,False,True,False,21-30,33.82821910204082,-118.18055406122448,0.0,12%,19%,6%,45%,<1%,2%,4%,3%,9%
98,LongBeach,Lincoln Elementary School,6,"1175 East 11th Street, Long Beach, CA, 90813",https://www.greatschools.org/california/long-beach/2580-Lincoln-Elementary-School/,Public district,K-5,1006.0,23:1,Long Beach Unified School District,41.0,33.0,24.0,False,True,False,False,21-30,33.78086852173913,-118.17693082608696,0.0,9%,8%,<1%,80%,<1%,<1%,1%,1%,1%
99,LongBeach,Millikan High School,6,"2800 Snowden Avenue, Long Beach, CA, 90815",https://www.greatschools.org/california/long-beach/2591-Millikan-High-School/,Public district,9-12,3529.0,24:1,Long Beach Unified School District,55.0,30.0,26.0,False,False,False,True,21-30,33.80665821917808,-118.111674369863,0.0,5%,9%,3%,45%,<1%,1%,2%,4%,31%
100,LongBeach,Stanford Middle School,6,"5871 East Los Arcos Street, Long Beach, CA, 90815",https://www.greatschools.org/california/long-beach/2604-Stanford-Middle-School/,Public district,6-8,1244.0,25:1,Long Beach Unified School District,60.0,48.0,35.0,False,False,True,False,21-30,33.79962892279282,-118.11878932398982,0.0,7%,8%,3%,38%,<1%,1%,5%,8%,30%
101,LongBeach,Twain Elementary School,6,"5021 East Centralia Street, Long Beach, CA, 90808",https://www.greatschools.org/california/long-beach/2610-Twain-Elementary-School/,Public district,K-5,567.0,25:1,Long Beach Unified School District,51.0,43.0,45.0,False,True,False,False,21-30,33.839667795918366,-118.13464553061225,0.0,11%,14%,4%,43%,,1%,9%,2%,16%
102,LongBeach,Dooley Elementary School,5,"5075 Long Beach Boulevard, Long Beach, CA, 90805",https://www.greatschools.org/california/long-beach/17636-Dooley-Elementary-School/,Public district,K-5,1001.0,25:1,Long Beach Unified School District,35.0,30.0,20.0,False,True,False,False,21-30,33.8476931,-118.19503809242768,0.0,2%,17%,3%,71%,,2%,2%,2%,1%
103,LongBeach,Bryant Elementary School,5,"4101 East Fountain Street, Long Beach, CA, 90804",https://www.greatschools.org/california/long-beach/2543-Bryant-Elementary-School/,Public district,K-5,365.0,20:1,Long Beach Unified School District,40.0,25.0,17.0,False,True,False,False,16-20,33.7839912,-118.14509615482608,0.0,8%,14%,1%,58%,1%,2%,6%,2%,8%
104,LongBeach,Burbank Elementary School,5,"501 Junipero Avenue, Long Beach, CA, 90814",https://www.greatschools.org/california/long-beach/2545-Burbank-Elementary-School/,Public district,K-5,707.0,22:1,Long Beach Unified School District,39.0,27.0,22.0,False,True,False,False,21-30,33.77217138383838,-118.16433103030305,0.0,4%,12%,<1%,71%,,1%,4%,2%,6%
105,LongBeach,Burnett Elementary School,5,"565 East Hill Street, Long Beach, CA, 90806",https://www.greatschools.org/california/long-beach/2547-Burnett-Elementary-School/,Public district,K-5,851.0,23:1,Long Beach Unified School District,36.0,28.0,18.0,False,True,False,False,21-30,33.79719816666667,-118.18571975,0.0,13%,8%,2%,73%,,<1%,2%,2%,<1%
106,LongBeach,Edison Elementary School,5,"625 Maine Avenue, Long Beach, CA, 90802",https://www.greatschools.org/california/long-beach/2556-Edison-Elementary-School/,Public district,K-5,565.0,22:1,Long Beach Unified School District,29.0,20.0,18.0,False,True,False,False,21-30,33.77384478787879,-118.20068737373738,0.0,1%,10%,,85%,<1%,<1%,2%,,2%
107,LongBeach,Grant Elementary School,5,"1225 East 64th Street, Long Beach, CA, 90805",https://www.greatschools.org/california/long-beach/2563-Grant-Elementary-School/,Public district,K-5,1119.0,25:1,Long Beach Unified School District,36.0,27.0,18.0,False,True,False,False,21-30,33.87089589393939,-118.17696588888889,0.0,7%,9%,1%,76%,<1%,2%,2%,1%,2%
108,LongBeach,Hamilton Middle School,5,"1060 70th Street, Long Beach, CA, 90805",https://www.greatschools.org/california/long-beach/2564-Hamilton-Middle-School/,Public district,6-8,932.0,23:1,Long Beach Unified School District,38.0,25.0,18.0,False,False,True,False,21-30,33.8809089,-118.17961269619536,0.0,3%,10%,1%,80%,<1%,2%,1%,2%,1%
109,LongBeach,International Elementary School,5,"700 Locust Avenue, Long Beach, CA, 90802",https://www.greatschools.org/california/long-beach/2572-International-Elementary-School/,Public district,K-5,694.0,21:1,Long Beach Unified School District,33.0,18.0,22.0,False,True,False,False,21-30,33.775459,-118.190978,0.0,4%,10%,1%,82%,<1%,1%,1%,,1%
110,LongBeach,Jefferson Leadership Academies School,5,"1400 East 20th Street, Long Beach, CA, 90806",https://www.greatschools.org/california/long-beach/2573-Jefferson-Leadership-Academies-School/,Public district,6-8,1085.0,26:1,Long Beach Unified School District,47.0,24.0,16.0,False,False,True,False,21-30,33.793881,-118.17414633165828,0.0,9%,17%,<1%,66%,<1%,<1%,2%,2%,4%
111,LongBeach,Lafayette Elementary School,5,"2445 Chestnut Avenue, Long Beach, CA, 90806",https://www.greatschools.org/california/long-beach/2577-Lafayette-Elementary-School/,Public district,K-5,912.0,24:1,Long Beach Unified School District,37.0,29.0,17.0,False,True,False,False,21-30,33.80157910204082,-118.19597879591836,0.0,3%,13%,1%,77%,<1%,1%,2%,1%,2%
112,LongBeach,Lee Elementary School,5,"1620 Temple Avenue, Long Beach, CA, 90804",https://www.greatschools.org/california/long-beach/2579-Lee-Elementary-School/,Public district,K-5,832.0,24:1,Long Beach Unified School District,42.0,23.0,26.0,False,True,False,False,21-30,33.787389081632654,-118.15882679591836,0.0,12%,11%,1%,70%,<1%,<1%,3%,2%,1%
113,LongBeach,Muir K-8,5,"3038 Delta Avenue, Long Beach, CA, 90810",https://www.greatschools.org/california/long-beach/2593-Muir-K-8/,Public district,K-8,1077.0,25:1,Long Beach Unified School District,45.0,30.0,18.0,False,True,True,False,21-30,33.81259959183674,-118.2109965510204,0.0,4%,12%,11%,65%,,3%,3%,1%,1%
114,LongBeach,Polytechnic High School,5,"1600 Atlantic Avenue, Long Beach, CA, 90813",https://www.greatschools.org/california/long-beach/2596-Polytechnic-High-School/,Public district,9-12,4026.0,24:1,Long Beach Unified School District,48.0,28.0,28.0,False,False,False,True,21-30,33.788167,-118.184923,0.0,17%,16%,5%,48%,<1%,1%,1%,3%,9%
115,LongBeach,Robinson Academy,5,"2750 Pine Avenue, Long Beach, CA, 90806",https://www.greatschools.org/california/long-beach/2600-Robinson-Academy/,Public district,K-8,929.0,22:1,Long Beach Unified School District,38.0,22.0,17.0,False,True,True,False,21-30,33.80711997959184,-118.19236804081632,0.0,2%,17%,2%,73%,,2%,2%,1%,1%
116,LongBeach,Roosevelt Elementary School,5,"1574 Linden Avenue, Long Beach, CA, 90813",https://www.greatschools.org/california/long-beach/2602-Roosevelt-Elementary-School/,Public district,K-5,1006.0,24:1,Long Beach Unified School District,28.0,25.0,20.0,False,True,False,False,21-30,33.78674041248928,-118.18658092182328,0.0,6%,8%,<1%,83%,,1%,1%,1%,<1%
117,LongBeach,Stevenson Elementary School,5,"515 Lime Avenue, Long Beach, CA, 90802",https://www.greatschools.org/california/long-beach/2606-Stevenson-Elementary-School/,Public district,K-5,650.0,24:1,Long Beach Unified School District,35.0,21.0,18.0,False,True,False,False,21-30,33.77308778723404,-118.18379555319147,0.0,2%,18%,1%,73%,<1%,<1%,2%,,4%
118,LongBeach,Wilson High School,5,"4400 East 10th Street, Long Beach, CA, 90804",https://www.greatschools.org/california/long-beach/2615-Wilson-High-School/,Public district,9-12,3679.0,23:1,Long Beach Unified School District,58.0,19.0,13.0,False,False,False,True,21-30,33.778884,-118.140702,0.0,8%,11%,2%,55%,<1%,1%,2%,3%,18%
119,LongBeach,King Elementary School,4,"145 East Artesia Boulevard, Long Beach, CA, 90805",https://www.greatschools.org/california/long-beach/10946-King-Elementary-School/,Public district,K-5,734.0,23:1,Long Beach Unified School District,33.0,21.0,18.0,False,True,False,False,21-30,33.87436079591837,-118.2017364489796,0.0,1%,9%,1%,85%,,1%,1%,1%,1%
120,LongBeach,Powell Academy For Success,4,"150 Victoria St., Long Beach, CA, 90805",https://www.greatschools.org/california/long-beach/10950-Powell-Academy-For-Success/,Public district,K-8,1079.0,25:1,Long Beach Unified School District,34.0,22.0,16.0,False,True,True,False,21-30,33.864769933568375,-118.2034423555112,0.0,3%,22%,1%,68%,<1%,4%,2%,,<1%
121,LongBeach,Chavez Elementary School,4,"730 West 3rd Street, Long Beach, CA, 90802",https://www.greatschools.org/california/long-beach/13853-Chavez-Elementary-School/,Public district,K-5,371.0,18:1,Long Beach Unified School District,29.0,14.0,13.0,False,True,False,False,16-20,33.769779,-118.20136784554828,0.0,4%,19%,1%,66%,<1%,<1%,4%,3%,3%
122,LongBeach,Lindsey Academy,4,"5075 Daisy Avenue, Long Beach, CA, 90805",https://www.greatschools.org/california/long-beach/17635-Lindsey-Academy/,Public district,6-8,762.0,24:1,Long Beach Unified School District,35.0,13.0,10.0,False,False,True,False,21-30,33.848430244474265,-118.199078,0.0,3%,13%,2%,77%,<1%,2%,1%,1%,1%
123,LongBeach,Harte Elementary School,4,"1671 East Phillips Street, Long Beach, CA, 90805",https://www.greatschools.org/california/long-beach/2565-Harte-Elementary-School/,Public district,K-5,917.0,23:1,Long Beach Unified School District,32.0,25.0,14.0,False,True,False,False,21-30,33.85881530320839,-118.17173563088168,0.0,9%,15%,2%,67%,<1%,2%,3%,,2%
124,LongBeach,McKinley Elementary School,4,"6822 Paramount Boulevard, Long Beach, CA, 90805",https://www.greatschools.org/california/long-beach/2590-McKinley-Elementary-School/,Public district,K-5,660.0,24:1,Long Beach Unified School District,36.0,22.0,18.0,False,True,False,False,21-30,33.878797326530616,-118.15990946938776,0.0,6%,15%,<1%,72%,,2%,1%,1%,3%
125,LongBeach,Webster Elementary School,4,"1755 West 32nd Way, Long Beach, CA, 90810",https://www.greatschools.org/california/long-beach/2612-Webster-Elementary-School/,Public district,K-5,565.0,22:1,Long Beach Unified School District,34.0,24.0,14.0,False,True,False,False,21-30,33.81622255102041,-118.21590402040816,0.0,2%,21%,6%,61%,1%,4%,3%,1%,1%
126,LongBeach,Willard Elementary School,4,"1055 Freeman Avenue, Long Beach, CA, 90804",https://www.greatschools.org/california/long-beach/2614-Willard-Elementary-School/,Public district,K-5,665.0,23:1,Long Beach Unified School District,28.0,25.0,21.0,False,True,False,False,21-30,33.779951653061225,-118.155764,0.0,10%,11%,<1%,69%,1%,<1%,3%,3%,3%
127,LongBeach,Richard D. Browning High,4,"2120 Obispo Avenue, Long Beach, CA, 90804",https://www.greatschools.org/california/long-beach/32606-Richard-D.-Browning-High/,Public district,9-12,279.0,18:1,Long Beach Unified School District,42.0,6.0,7.0,False,False,False,True,16-20,33.79659342857143,-118.154466,0.0,8%,18%,1%,61%,1%,1%,2%,2%,6%
128,LongBeach,Barton Elementary School,3,"2159 Rutgers Ave, Long Beach, CA 90815",https://www.greatschools.org/california/long-beach/2540-Barton-Elementary-School/,Public district,K-5,525.0,23:1,Long Beach Unified School District,23.0,14.0,16.0,False,True,False,False,21-30,33.7992643,-118.1326464,0.0,6%,28%,3%,54%,<1%,2%,3%,1%,3%
129,LongBeach,Hudson K-8,3,"2335 Webster Avenue, Long Beach, CA, 90810",https://www.greatschools.org/california/long-beach/2570-Hudson-K-8/,Public district,K-8,629.0,21:1,Long Beach Unified School District,31.0,21.0,5.0,False,True,True,False,21-30,33.79960078571428,-118.21968342857144,0.0,3%,18%,21%,49%,<1%,3%,3%,2%,1%
130,LongBeach,Lindbergh Middle School,3,"1022 East Market Street, Long Beach, CA, 90805",https://www.greatschools.org/california/long-beach/2581-Lindbergh-Middle-School/,Public district,6-8,627.0,24:1,Long Beach Unified School District,32.0,13.0,9.0,False,False,True,False,21-30,33.854431657894736,-118.18047868421051,0.0,6%,22%,2%,61%,<1%,4%,<1%,3%,2%
131,LongBeach,Mann Elementary School,3,"257 Coronado Avenue, Long Beach, CA, 90803",https://www.greatschools.org/california/long-beach/2587-Mann-Elementary-School/,Public district,K-5,383.0,20:1,Long Beach Unified School District,35.0,29.0,7.0,False,True,False,False,16-20,33.765463857142855,-118.15359328571428,0.0,4%,21%,1%,55%,,1%,5%,2%,11%
132,LongBeach,Stephens Middle School,3,"1830 West Columbia Street, Long Beach, CA, 90810",https://www.greatschools.org/california/long-beach/2605-Stephens-Middle-School/,Public district,6-8,797.0,24:1,Long Beach Unified School District,26.0,15.0,15.0,False,False,True,False,21-30,33.80906108163265,-118.21837085714286,0.0,3%,12%,12%,67%,,3%,1%,1%,1%
133,LongBeach,Washington Middle School,3,"1450 Cedar Avenue, Long Beach, CA, 90813",https://www.greatschools.org/california/long-beach/2611-Washington-Middle-School/,Public district,6-8,1061.0,24:1,Long Beach Unified School District,29.0,13.0,5.0,False,False,True,False,21-30,33.78482397297297,-118.19496064864865,0.0,2%,9%,1%,84%,<1%,<1%,1%,2%,1%
134,LongBeach,Captain Raymond Collins School,3,"6125 Coke Avenue, Long Beach, CA, 90805",https://www.greatschools.org/california/long-beach/2762-Captain-Raymond-Collins-School/,Public district,K-5,587.0,23:1,Paramount Unified School District,25.0,15.0,5.0,False,True,False,False,21-30,33.8665695,-118.1484234128977,0.0,3%,37%,1%,53%,,1%,3%,,2%
135,LongBeach,Cabrillo High School,2,"2001 Santa Fe Avenue, Long Beach, CA, 90810",https://www.greatschools.org/california/long-beach/2550-Cabrillo-High-School/,Public district,9-12,2124.0,21:1,Long Beach Unified School District,38.0,9.0,9.0,False,False,False,True,21-30,33.793669,-118.2158158,0.0,3%,11%,9%,72%,<1%,2%,1%,1%,1%
136,LongBeach,Jordan High School,2,"6500 Atlantic Avenue, Long Beach, CA, 90805",https://www.greatschools.org/california/long-beach/2574-Jordan-High-School/,Public district,9-12,2465.0,21:1,Long Beach Unified School District,31.0,6.0,7.0,False,False,False,True,21-30,33.87344,-118.186019,0.0,4%,15%,1%,76%,<1%,2%,<1%,1%,1%
137,LongBeach,Whittier Elementary School,2,"1761 Walnut Avenue, Long Beach, CA, 90813",https://www.greatschools.org/california/long-beach/2613-Whittier-Elementary-School/,Public district,K-5,952.0,22:1,Long Beach Unified School District,17.0,15.0,13.0,False,True,False,False,21-30,33.78912006122449,-118.1720834489796,0.0,16%,10%,<1%,70%,,<1%,2%,1%,1%
138,LongBeach,Intellectual Virtues Academy,2,"1637 Long Beach Boulevard, Long Beach, CA, 90813",https://www.greatschools.org/california/long-beach/32318-Intellectual-Virtues-Academy/,Public charter,9-12,105.0,12:1,Long Beach Unified School District,34.0,4.0,8.0,False,False,False,True,10-15,33.788174,-118.189472,0.0,3%,21%,3%,55%,,1%,5%,,12%
139,LongBeach,Pacific Baptist School,Unrated,"3332 Magnolia Avenue, Long Beach, CA, 90806",https://www.greatschools.org/california/long-beach/10037-Pacific-Baptist-School/,Private,PK-12,136.0,Unknown,Private,,,,True,True,True,True,Unknown,33.81772371428571,-118.19796402040816,0.0,,,,,,,,,
140,LongBeach,Marina Montessori School,Unrated,"2301 Ximeno Avenue, Long Beach, CA, 90815",https://www.greatschools.org/california/long-beach/10094-Marina-Montessori-School/,Private,PK-1,56.0,Unknown,Private,,,,True,True,False,False,Unknown,33.799813,-118.141154,0.0,,,,,,,,,
141,LongBeach,Parkridge Private School,Unrated,"3605 Long Beach Boulevard, Long Beach, CA, 90807",https://www.greatschools.org/california/long-beach/10110-Parkridge-Private-School/,Private,K-12,35.0,Unknown,Private,,,,False,True,True,True,Unknown,33.82239838461538,-118.18945292307691,0.0,,,,,,,,,
142,LongBeach,United Faith Community,Unrated,"6934 North Long Beach, Long Beach, CA, 90805",https://www.greatschools.org/california/long-beach/10160-United-Faith-Community/,Private,K-3,,Unknown,Private,,,,False,True,False,False,Unknown,33.860011,-118.1856252,0.0,,,,,,,,,
143,LongBeach,Laurelcrest School for Girls,Unrated,"3435 San Anseline Ave., Long Beach, CA, 90808",https://www.greatschools.org/california/long-beach/10268-Laurelcrest-School-For-Girls/,Private,K-8,,Unknown,Private,,,,False,True,True,False,Unknown,33.8197952,-118.1209908,0.0,,,,,,,,,
144,LongBeach,Zinsmeyer Academy,Unrated,"4223 East Anaheim Street, Long Beach, CA, 90804",https://www.greatschools.org/california/long-beach/10276-Zinsmeyer-Academy/,Private,K-12,37.0,Unknown,Private,,,,False,True,True,True,Unknown,33.7826043,-118.1562024,0.0,,,,,,,,,
145,LongBeach,Oakwood Academy,Unrated,"3850 Long Beach Boulevard, Long Beach, CA, 90807",https://www.greatschools.org/california/long-beach/10311-Oakwood-Academy/,Private,K-5,60.0,Unknown,Private,,,,False,True,False,False,Unknown,33.82854415384615,-118.189254,0.0,,,,,,,,,
146,LongBeach,Westerly School of Long Beach,Unrated,"2950 East 29th Street, Long Beach, CA, 90806",https://www.greatschools.org/california/long-beach/10675-Westerly-School-Of-Long-Beach/,Private,K-8,172.0,Unknown,Private,,,,False,True,True,False,Unknown,33.8084329318865,-118.15708992102412,0.0,,,,,,,,,
147,LongBeach,Educational Partnership High School,Unrated,"1794 Cedar Avenue, Long Beach, CA, 90813",https://www.greatschools.org/california/long-beach/10944-Educational-Partnership-High-School/,Public district,9-12,807.0,34:1,Long Beach Unified School District,24.0,2.0,12.0,False,False,False,True,30+,33.78967004081633,-118.19495887755102,0.0,3%,17%,<1%,67%,<1%,2%,1%,1%,9%
148,LongBeach,Montessori School-Eureka,Unrated,"PO BOX 8605, Long Beach, CA, 90808",https://www.greatschools.org/california/long-beach/11291-Montessori-School-Eureka/,Private,PK-K,36.0,Unknown,Private,,,,True,False,False,False,Unknown,,,,,,,,,,,,
149,LongBeach,First Baptist Church School,Unrated,"1000 Pine Avenue, Long Beach, CA, 90813",https://www.greatschools.org/california/long-beach/11626-First-Baptist-Church-School/,Private,K-12,135.0,Unknown,Private,,,,False,True,True,True,Unknown,33.779096,-118.192277,0.0,,,,,,,,,
150,LongBeach,City Christian School,Unrated,"2217 E 6th St, Long Beach, CA, 90814",https://www.greatschools.org/california/long-beach/11672-City-Christian-School/,Private,PK-6,,Unknown,Private,,,,True,True,True,False,Unknown,33.77405267346939,-118.16514848979593,0.0,,,,,,,,,
151,LongBeach,Renaissance High School For The Arts,Unrated,"235 East 8th Street, Long Beach, CA, 90813",https://www.greatschools.org/california/long-beach/11956-Renaissance-High-School-For-The-Arts/,Public district,9-12,442.0,22:1,Long Beach Unified School District,33.0,6.0,,False,False,False,True,21-30,33.776628,-118.19025677777778,0.0,3%,21%,3%,49%,<1%,<1%,2%,8%,14%
152,LongBeach,New Life Christian Academy,Unrated,"6491 Cherry Avenue, Long Beach, CA, 90805",https://www.greatschools.org/california/long-beach/12657-New-Life-Christian-Academy/,Private,K-12,,Unknown,Private,,,,False,True,True,True,Unknown,33.872280181818184,-118.16876181818182,0.0,,,,,,,,,
153,LongBeach,Giant Steps Children's Center,Unrated,"6951 Obispo Avenue, Long Beach, CA, 90805",https://www.greatschools.org/california/long-beach/12817-Giant-Steps-Childrens-Center/,Private,PK-K,40.0,Unknown,Private,,,,True,False,False,False,Unknown,33.880925,-118.155765,0.0,,,,,,,,,
154,LongBeach,Montessori Academy Of Long Beach,Unrated,"3908 Woodruff Avenue, Long Beach, CA, 90808",https://www.greatschools.org/california/long-beach/13119-Montessori-Academy-Of-Long-Beach/,Private,PK-K,26.0,Unknown,Private,,,,True,False,False,False,Unknown,33.82903842842721,-118.11645971948904,0.0,,,,,,,,,
155,LongBeach,Edgewater Pre-School,Unrated,"5270 East Atherton Street, Long Beach, CA, 90815",https://www.greatschools.org/california/long-beach/13234-Edgewater-Pre-School/,Private,PK,,Unknown,Private,,,,True,False,False,False,Unknown,33.7886839,-118.0940163,0.0,,,,,,,,,
156,LongBeach,Select Community Day (Secondary) School,Unrated,"2221 Argonne Avenue, Long Beach, CA, 90815",https://www.greatschools.org/california/long-beach/13911-Select-Community-Day-Secondary-School/,Public district,7-12,8.0,9:1,Long Beach Unified School District,,,,False,False,True,True,<10,33.79650887755102,-118.13627857142858,0.0,,25%,,50%,,,13%,,13%
157,LongBeach,Bethany Baptist Elementary School,Unrated,"2244 Clark Avenue, Long Beach, CA, 90815",https://www.greatschools.org/california/long-beach/15093-Bethany-Baptist-Elementary-School/,Private,K-8,322.0,Unknown,Private,,,,False,True,True,False,Unknown,33.7961587,-118.1340178,0.0,,,,,,,,,
158,LongBeach,Southwestern Longview Private,Unrated,"4747 Daisy Avenue, Long Beach, CA, 90805",https://www.greatschools.org/california/long-beach/15118-Southwestern-Longview-Private/,Private,K-12,,Unknown,Private,,,,False,True,True,True,Unknown,33.8447434,-118.1991493,0.0,,,,,,,,,
159,LongBeach,Bixby Oaks Children Center,Unrated,"3832 Long Beach Blvd, Long Beach, CA, 90807",https://www.greatschools.org/california/long-beach/15384-Bixby-Oaks-Children-Center/,Private,PK-K,,Unknown,Private,,,,True,False,False,False,Unknown,33.827881727272725,-118.18925481818182,0.0,,,,,,,,,
160,LongBeach,Kindercare Learning Center #1626 Belmont Shore,Unrated,"5251 East Las Lomas Street, Long Beach, CA, 90815",https://www.greatschools.org/california/long-beach/15431-Kindercare-Learning-Center-1626-Belmont-Shore/,Private,PK-K,20.0,Unknown,Private,,,,True,False,False,False,Unknown,,,,,,,,,,,,
161,LongBeach,Oak Tree Children's Center,Unrated,"1710 Redondo Avenue, Long Beach, CA, 90804",https://www.greatschools.org/california/long-beach/15535-Oak-Tree-Childrens-Center/,Private,K,,Unknown,Private,,,,True,False,False,False,Unknown,33.78821608333333,-118.152302,0.0,,,,,,,,,
162,LongBeach,Long Beach Montessori School,Unrated,"5447 N Paramount Blvd, Long Beach, CA, 90805",https://www.greatschools.org/california/long-beach/15563-Long-Beach-Montessori-School/,Private,PK-K,,Unknown,Private,,,,True,False,False,False,Unknown,,,,,,,,,,,,
163,LongBeach,Open Door Enrichment,Unrated,"132 East Artesia Boulevard, Long Beach, CA, 90805",https://www.greatschools.org/california/long-beach/15615-Open-Door-Enrichment/,Private,K-3,,Unknown,Private,,,,False,True,False,False,Unknown,33.87419530612245,-118.2019693265306,0.0,,,,,,,,,
164,LongBeach,Carousel School,Unrated,"366 Cherry Avenue, Long Beach, CA, 90802",https://www.greatschools.org/california/long-beach/15685-Carousel-School/,Private,PK-5,,Unknown,Private,,,,True,True,False,False,Unknown,33.7712505,-118.16746538926924,0.0,,,,,,,,,
165,LongBeach,Bay Shore School,Unrated,"228 Corona Avenue, Long Beach, CA, 90803",https://www.greatschools.org/california/long-beach/15968-Bay-Shore-School/,Private,K-12,27.0,Unknown,Private,,,,False,True,True,True,Unknown,33.76171640428699,-118.1333715535777,0.0,,,,,,,,,
166,LongBeach,Rainbow Christian Academy,Unrated,"3816 Weston Place, Long Beach, CA, 90807",https://www.greatschools.org/california/long-beach/16125-Rainbow-Christian-Academy/,Private,1-12,6.0,Unknown,Private,,,,False,True,True,True,Unknown,33.827505333333335,-118.19190433333334,0.0,,,,,,,,,
167,LongBeach,Seaside Academy,Unrated,"1531 E Harding St, Long Beach, CA, 90805",https://www.greatschools.org/california/long-beach/16136-Seaside-Academy/,Private,K-12,,Unknown,Private,,,,False,True,True,True,Unknown,33.867450000000005,-118.17381575,0.0,,,,,,,,,
168,LongBeach,St. Barnabas Elementary School,Unrated,"3980 Marron Avenue, Long Beach, CA, 90807",https://www.greatschools.org/california/long-beach/16155-St.-Barnabas-Elementary-School/,Private,PK-8,303.0,Unknown,Private,,,,True,True,True,False,Unknown,33.83107389285715,-118.17726864285714,0.0,,,,,,,,,
169,LongBeach,Montessori School Eureka,Unrated,"5306 East Arbor Road, Long Beach, CA, 90808",https://www.greatschools.org/california/long-beach/17198-Montessori-School-Eureka/,Private,PK-2,,Unknown,Private,,,,True,True,False,False,Unknown,,,,,,,,,,,,
170,LongBeach,Child & Family Center,Unrated,"1250 North Bellflower Boulevard, Long Beach, CA, 90840",https://www.greatschools.org/california/long-beach/18257-Child--Family-Center/,Private,PK,,Unknown,Private,,,,True,False,False,False,Unknown,33.783723408270355,-118.12223378917275,0.0,,,,,,,,,
171,LongBeach,Play House North,Unrated,"Po Box 16004, Long Beach, CA, 90806",https://www.greatschools.org/california/long-beach/19893-Play-House-North/,Private,PK,,Unknown,Private,,,,True,False,False,False,Unknown,,,,,,,,,,,,
172,LongBeach,Simply Kare Child Development Center,Unrated,"1330 Termino Ave, Long Beach, CA, 90804",https://www.greatschools.org/california/long-beach/19894-Simply-Kare-Child-Development-Center/,Private,PK,,Unknown,Private,,,,True,False,False,False,Unknown,33.78303590322581,-118.14578851612904,0.0,,,,,,,,,
173,LongBeach,Creative Arts Day Care,Unrated,"1423 Walnut Ave, Long Beach, CA, 90813",https://www.greatschools.org/california/long-beach/19895-Creative-Arts-Day-Care/,Private,PK,,Unknown,Private,,,,True,False,False,False,Unknown,33.784890346938774,-118.17208632653062,0.0,,,,,,,,,
174,LongBeach,Whittier Child Development Center,Unrated,"1424 E Esther St, Long Beach, CA, 90813",https://www.greatschools.org/california/long-beach/19896-Whittier-Child-Development-Center/,Private,PK,,Unknown,Private,,,,True,False,False,False,Unknown,33.788869530612246,-118.17381830612246,0.0,,,,,,,,,
175,LongBeach,Ole' King Cole Develop Center,Unrated,"1814 E 7th St, Long Beach, CA, 90813",https://www.greatschools.org/california/long-beach/19898-Ole-King-Cole-Develop-Center/,Private,PK,,Unknown,Private,,,,True,False,False,False,Unknown,33.775259857142856,-118.16956457142858,0.0,,,,,,,,,
176,LongBeach,Montessori Children's House 1,Unrated,"5550 East Atherton Street, Long Beach, CA, 90815",https://www.greatschools.org/california/long-beach/19899-Montessori-Childrens-House-1/,Private,PK,,Unknown,Private,,,,True,False,False,False,Unknown,33.7886839,-118.0940163,0.0,,,,,,,,,
177,LongBeach,West Child Development Center,Unrated,"2125 Santa Fe Ave, Long Beach, CA, 90810",https://www.greatschools.org/california/long-beach/19900-West-Child-Development-Center/,Private,PK,,Unknown,Private,,,,True,False,False,False,Unknown,33.795914,-118.21553607692309,0.0,,,,,,,,,
178,LongBeach,Garfield Child Development Center-School Age,Unrated,"2240 Baltic Ave, Long Beach, CA, 90810",https://www.greatschools.org/california/long-beach/19901-Garfield-Child-Development-Center-School-Age/,Private,PK,,Unknown,Private,,,,True,False,False,False,Unknown,33.797886,-118.2131627755102,0.0,,,,,,,,,
179,LongBeach,Young Horizons-N Pacific,Unrated,"2418 Pacific Ave, Long Beach, CA, 90806",https://www.greatschools.org/california/long-beach/19903-Young-Horizons-N-Pacific/,Private,PK,,Unknown,Private,,,,True,False,False,False,Unknown,33.801161816326534,-118.19360791836736,0.0,,,,,,,,,
180,LongBeach,Grace Lutheran Christian Pre-School,Unrated,"245 West Wardlow Road, Long Beach, CA, 90807",https://www.greatschools.org/california/long-beach/19904-Grace-Lutheran-Christian-Pre-School/,Private,PK,,Unknown,Private,,,,True,False,False,False,Unknown,33.8190358,-118.1966151,0.0,,,,,,,,,
181,LongBeach,Palo Verde Christian Ch Nursery,Unrated,"2501 Palo Verde Avenue, Long Beach, CA, 90815",https://www.greatschools.org/california/long-beach/19905-Palo-Verde-Christian-Ch-Nursery/,Private,PK,,Unknown,Private,,,,True,False,False,False,Unknown,33.80297738890566,-118.10800221966385,0.0,,,,,,,,,
182,LongBeach,Magnolia Children Club-Comp Dev,Unrated,"2545 Pacific Ave, Long Beach, CA, 90806",https://www.greatschools.org/california/long-beach/19906-Magnolia-Children-Club-Comp-Dev/,Private,PK,,Unknown,Private,,,,True,False,False,False,Unknown,33.80339469387755,-118.19380865306124,0.0,,,,,,,,,
183,LongBeach,First Baptist Pre-School & Kindergarten,Unrated,"2679 E Carson St, Long Beach, CA, 90810",https://www.greatschools.org/california/long-beach/19907-First-Baptist-Pre-School--Kindergarten/,Private,PK,,Unknown,Private,,,,True,False,False,False,Unknown,33.8317353,-118.2161678,0.0,,,,,,,,,
184,LongBeach,Great Beginnings,Unrated,"3027 East 4th Street, Long Beach, CA, 90814",https://www.greatschools.org/california/long-beach/19908-Great-Beginnings/,Private,PK,,Unknown,Private,,,,True,False,False,False,Unknown,33.77179143478261,-118.15616286956522,0.0,,,,,,,,,
185,LongBeach,A Love 4 Learning Academy,Unrated,"306 Elm Ave, Long Beach, CA, 90802",https://www.greatschools.org/california/long-beach/19909-A-Love-4-Learning-Academy/,Private,PK,,Unknown,Private,,,,True,False,False,False,Unknown,33.77068984615385,-118.18756846153846,0.0,,,,,,,,,
186,LongBeach,Long Beach Kiddy Kollege,Unrated,"3090 Long Beach Boulevard, Long Beach, CA, 90807",https://www.greatschools.org/california/long-beach/19910-Long-Beach-Kiddy-Kollege/,Private,PK,,Unknown,Private,,,,True,False,False,False,Unknown,33.81311816666666,-118.1892485,0.0,,,,,,,,,
187,LongBeach,Muir Child Development Center,Unrated,"3041 Delta Ave, Long Beach, CA, 90810",https://www.greatschools.org/california/long-beach/19911-Muir-Child-Development-Center/,Private,PK,,Unknown,Private,,,,True,False,False,False,Unknown,33.81264093877551,-118.21119463265306,0.0,,,,,,,,,
188,LongBeach,Belmont Heights Un Methodist Nursery,Unrated,"317 Termino Avenue, Long Beach, CA, 90814",https://www.greatschools.org/california/long-beach/19912-Belmont-Heights-Un-Methodist-Nursery/,Private,PK-K,,Unknown,Private,,,,True,False,False,False,Unknown,33.768987,-118.1465318,0.0,,,,,,,,,
189,LongBeach,Sander's Teeny Tiny Pre-School,Unrated,"3211 Santa Fe Ave, Long Beach, CA, 90810",https://www.greatschools.org/california/long-beach/19913-Sanders-Teeny-Tiny-Pre-School/,Private,PK,,Unknown,Private,,,,True,False,False,False,Unknown,33.81587183333333,-118.215547,0.0,,,,,,,,,
190,LongBeach,Mann Child Development Center,Unrated,"4310 Long Beach Boulevard #200, Long Beach, CA, 90807",https://www.greatschools.org/california/long-beach/19914-Mann-Child-Development-Center/,Private,PK-K,,Unknown,Private,,,,True,False,False,False,Unknown,,,,,,,,,,,,
191,LongBeach,Christian Life Learning Center,Unrated,"3400 Pacific Ave, Long Beach, CA, 90807",https://www.greatschools.org/california/long-beach/19915-Christian-Life-Learning-Center/,Private,PK,,Unknown,Private,,,,True,False,False,False,Unknown,33.819106,-118.193639,0.0,,,,,,,,,
192,LongBeach,YMCA-GLB-Lutheran Church Site,Unrated,"345 E Carson St, Long Beach, CA, 90807",https://www.greatschools.org/california/long-beach/19917-YMCA-GLB-Lutheran-Church-Site/,Private,PK,,Unknown,Private,,,,True,False,False,False,Unknown,33.8317353,-118.2161678,0.0,,,,,,,,,
193,LongBeach,Bundle Of Joy Day Care 4,Unrated,"3588 Long Beach Boulevard, Long Beach, CA, 90807",https://www.greatschools.org/california/long-beach/19918-Bundle-Of-Joy-Day-Care-4/,Private,PK-K,,Unknown,Private,,,,True,False,False,False,Unknown,33.82187224489796,-118.18925669387755,0.0,,,,,,,,,
194,LongBeach,Kidworks Children Center,Unrated,"3621 East Broadway, Long Beach, CA, 90803",https://www.greatschools.org/california/long-beach/19919-Kidworks-Children-Center/,Private,PK-K,,Unknown,Private,,,,True,False,False,False,Unknown,33.76453379591837,-118.14992338775512,0.0,,,,,,,,,
195,LongBeach,Singing Fountains Pre-School,Unrated,"3655 North Norwalk Boulevard, Long Beach, CA, 90808",https://www.greatschools.org/california/long-beach/19920-Singing-Fountains-Pre-School/,Private,PK-K,,Unknown,Private,,,,True,False,False,False,Unknown,33.823616428571434,-118.07191426530612,0.0,,,,,,,,,
196,LongBeach,Our Saviour's Lutheran Pre-School,Unrated,"370 Junipero Avenue, Long Beach, CA, 90814",https://www.greatschools.org/california/long-beach/19921-Our-Saviours-Lutheran-Pre-School/,Private,PK,,Unknown,Private,,,,True,False,False,False,Unknown,33.770922125,-118.164498875,0.0,,,,,,,,,
197,LongBeach,New Horizons Christian School,Unrated,"3707 Atlantic Ave, Long Beach, CA, 90807",https://www.greatschools.org/california/long-beach/19922-New-Horizons-Christian-School/,Private,PK,,Unknown,Private,,,,True,False,False,False,Unknown,33.824473510204086,-118.18511275510204,0.0,,,,,,,,,
198,LongBeach,Ca Heights Un Methodist Chldrn Center,Unrated,"3759 Orange Avenue, Long Beach, CA, 90807",https://www.greatschools.org/california/long-beach/19923-Ca-Heights-Un-Methodist-Chldrn-Center/,Private,PK,,Unknown,Private,,,,True,False,False,False,Unknown,33.82566255102041,-118.17640363265306,0.0,,,,,,,,,
199,LongBeach,Early Childhood Ed Center,Unrated,"3801 East Willow Street, Long Beach, CA, 90815",https://www.greatschools.org/california/long-beach/19924-Early-Childhood-Ed-Center/,Private,PK,,Unknown,Private,,,,True,False,False,False,Unknown,33.80434439337101,-118.14859360950663,0.0,,,,,,,,,
200,LongBeach,Grace 1st Presbyterian Pre-School,Unrated,"3955 North Studebaker Road, Long Beach, CA, 90808",https://www.greatschools.org/california/long-beach/19925-Grace-1st-Presbyterian-Pre-School/,Private,PK,,Unknown,Private,,,,True,False,False,False,Unknown,33.7725796,-118.1030718,0.0,,,,,,,,,
201,LongBeach,Long Beach Day Nursery-West,Unrated,"3965 Bellflower Blvd, Long Beach, CA, 90808",https://www.greatschools.org/california/long-beach/19926-Long-Beach-Day-Nursery-West/,Private,PK,,Unknown,Private,,,,True,False,False,False,Unknown,33.82923386133863,-118.12526740644697,0.0,,,,,,,,,
202,LongBeach,Long Beach Day Nursery-East,Unrated,"3965 North Bellflower Boulevard, Long Beach, CA, 90808",https://www.greatschools.org/california/long-beach/19927-Long-Beach-Day-Nursery-East/,Private,PK,,Unknown,Private,,,,True,False,False,False,Unknown,33.7882985,-118.1242461,0.0,,,,,,,,,
203,LongBeach,Phases-Early Comp Learning Child Care Center,Unrated,"404 North Newport Avenue, Long Beach, CA, 90814",https://www.greatschools.org/california/long-beach/19928-Phases-Early-Comp-Learning-Child-Care-Center/,Private,PK,,Unknown,Private,,,,True,False,False,False,Unknown,,,,,,,,,,,,
204,LongBeach,W Anaheim Head Start Center,Unrated,"440 West Anaheim Street, Long Beach, CA, 90813",https://www.greatschools.org/california/long-beach/19929-W-Anaheim-Head-Start-Center/,Private,PK,,Unknown,Private,,,,True,False,False,False,Unknown,33.7825941,-118.2013524,0.0,,,,,,,,,
205,LongBeach,Bethany Lutheran Pre-School,Unrated,"4644 Clark Avenue, Long Beach, CA, 90808",https://www.greatschools.org/california/long-beach/19930-Bethany-Lutheran-Pre-School/,Private,PK,,Unknown,Private,,,,True,False,False,False,Unknown,33.84115146938775,-118.13371481632652,0.0,,,,,,,,,
206,LongBeach,Twain Child Development Center,Unrated,"4310 Long Beach Boulevard #200, Long Beach, CA, 90807",https://www.greatschools.org/california/long-beach/19931-Twain-Child-Development-Center/,Private,PK,,Unknown,Private,,,,True,False,False,False,Unknown,,,,,,,,,,,,
207,LongBeach,Lakewood Vlg Community Church Nursery,Unrated,"4515 Sunfield Avenue, Long Beach, CA, 90808",https://www.greatschools.org/california/long-beach/19932-Lakewood-Vlg-Community-Church-Nursery/,Private,PK,,Unknown,Private,,,,True,False,False,False,Unknown,33.839937393939394,-118.13506393939392,0.0,,,,,,,,,
208,LongBeach,Fairfield Family YMCA,Unrated,"4949 Atlantic Ave, Long Beach, CA, 90805",https://www.greatschools.org/california/long-beach/19933-Fairfield-Family-YMCA/,Private,PK,,Unknown,Private,,,,True,False,False,False,Unknown,33.846064262626264,-118.1850435050505,0.0,,,,,,,,,
209,LongBeach,Young Horizons Child Development Center,Unrated,"501 Atlantic Avenue, Long Beach, CA, 90802",https://www.greatschools.org/california/long-beach/19934-Young-Horizons-Child-Development-Center/,Private,PK,,Unknown,Private,,,,True,False,False,False,Unknown,33.773045,-118.185122,0.0,,,,,,,,,
210,LongBeach,Burbank Child Development Center,Unrated,"535 Junipero Avenue, Long Beach, CA, 90814",https://www.greatschools.org/california/long-beach/19935-Burbank-Child-Development-Center/,Private,PK-K,,Unknown,Private,,,,True,False,False,False,Unknown,33.772286434343435,-118.16429806060606,0.0,,,,,,,,,
211,LongBeach,Young Horizons-De Las Flores,Unrated,"501 Atlantic Avenue, Long Beach, CA, 90802",https://www.greatschools.org/california/long-beach/19936-Young-Horizons-De-Las-Flores/,Private,PK,,Unknown,Private,,,,True,False,False,False,Unknown,33.773045,-118.185122,0.0,,,,,,,,,
212,LongBeach,Stevenson Child Development Center,Unrated,"4310 Long Beach Boulevard #200, Long Beach, CA, 90807",https://www.greatschools.org/california/long-beach/19937-Stevenson-Child-Development-Center/,Private,PK-K,,Unknown,Private,,,,True,False,False,False,Unknown,,,,,,,,,,,,
213,LongBeach,Carver Child Development Center,Unrated,"5335 East Pavo Street, Long Beach, CA, 90808",https://www.greatschools.org/california/long-beach/19938-Carver-Child-Development-Center/,Private,PK-K,,Unknown,Private,,,,True,False,False,False,Unknown,,,,,,,,,,,,
214,LongBeach,Lakewood Children Pre-School,Unrated,"5336 East Arbor Road, Long Beach, CA, 90808",https://www.greatschools.org/california/long-beach/19939-Lakewood-Children-Pre-School/,Private,PK,,Unknown,Private,,,,True,False,False,False,Unknown,,,,,,,,,,,,
215,LongBeach,Discovery Pre-School At Laucc,Unrated,"5550 East Atherton Street, Long Beach, CA, 90815",https://www.greatschools.org/california/long-beach/19940-Discovery-Pre-School-At-Laucc/,Private,PK,,Unknown,Private,,,,True,False,False,False,Unknown,33.7886839,-118.0940163,0.0,,,,,,,,,
216,LongBeach,Long Beach Christian Day Care Center,Unrated,"5559 East Wardlow Road, Long Beach, CA, 90808",https://www.greatschools.org/california/long-beach/19941-Long-Beach-Christian-Day-Care-Center/,Private,PK,,Unknown,Private,,,,True,False,False,False,Unknown,33.819213250000004,-118.12301626478252,0.0,,,,,,,,,
217,LongBeach,YMCA Creative Beginnings,Unrated,"5600 Linden Avenue, Long Beach, CA, 90805",https://www.greatschools.org/california/long-beach/19942-Creative-Beginnings/,Private,PK,,Unknown,Private,,,,True,False,False,False,Unknown,33.858533,-118.18587,0.0,,,,,,,,,
218,LongBeach,St Luke's Christian Pre-School,Unrated,"5633 East Wardlow Road, Long Beach, CA, 90808",https://www.greatschools.org/california/long-beach/19943-St-Lukes-Christian-Pre-School/,Private,PK,,Unknown,Private,,,,True,False,False,False,Unknown,33.819212699999994,-118.12171346837916,0.0,,,,,,,,,
219,LongBeach,Educational Enrichment Child Care Center,Unrated,"5640 Orange Ave, Long Beach, CA, 90805",https://www.greatschools.org/california/long-beach/19944-Educational-Enrichment-Child-Care-Center/,Private,PK,,Unknown,Private,,,,True,False,False,False,Unknown,33.85868243243243,-118.17717464864864,0.0,,,,,,,,,
220,LongBeach,Isabel Patterson Child Development Center,Unrated,"5700 East Atherton Street, Long Beach, CA, 90815",https://www.greatschools.org/california/long-beach/19945-Isabel-Patterson-Child-Development-Center/,Private,PK,,Unknown,Private,,,,True,False,False,False,Unknown,33.7886839,-118.0940163,0.0,,,,,,,,,
221,LongBeach,Seaside Child Development Center,Unrated,"5901 E 7th St, Long Beach, CA, 90822",https://www.greatschools.org/california/long-beach/19946-Seaside-Child-Development-Center/,Private,PK,,Unknown,Private,,,,True,False,False,False,Unknown,33.7784011,-118.1187786366041,0.0,,,,,,,,,
222,LongBeach,Los Altos United Methodist Pre-School,Unrated,"5950 East Willow Street, Long Beach, CA, 90815",https://www.greatschools.org/california/long-beach/19947-Los-Altos-United-Methodist-Pre-School/,Private,PK,,Unknown,Private,,,,True,False,False,False,Unknown,33.80316089795918,-118.11575204081632,0.0,,,,,,,,,
223,LongBeach,Parkcrest Early Childhood School,Unrated,"3936 Woodruff Avenue, Long Beach, CA, 90808",https://www.greatschools.org/california/long-beach/19948-Parkcrest-Early-Childhood-School/,Private,PK,,Unknown,Private,,,,True,False,False,False,Unknown,33.829427495138745,-118.11645762898137,0.0,,,,,,,,,
224,LongBeach,Abundance Of Life Day Care Center,Unrated,"6100 Long Beach Boulevard, Long Beach, CA, 90805",https://www.greatschools.org/california/long-beach/19949-Abundance-Of-Life-Day-Care-Center/,Private,PK,,Unknown,Private,,,,True,False,False,False,Unknown,33.8511254,-118.1954013,0.0,,,,,,,,,
225,LongBeach,North Child Development Center,Unrated,"4310 Long Beach Boulevard #200, Long Beach, CA, 90807",https://www.greatschools.org/california/long-beach/19950-North-Child-Development-Center/,Private,PK,,Unknown,Private,,,,True,False,False,False,Unknown,,,,,,,,,,,,
226,LongBeach,Edison Child Day Care Center,Unrated,"640 West 7th Street, Long Beach, CA, 90813",https://www.greatschools.org/california/long-beach/19951-Edison-Child-Day-Care-Center/,Private,PK,,Unknown,Private,,,,True,False,False,False,Unknown,33.775251,-118.20025702040816,0.0,,,,,,,,,
227,LongBeach,Grant Child Development Center,Unrated,"4310 Long Beach Boulevard #200, Long Beach, CA, 90807",https://www.greatschools.org/california/long-beach/19952-Grant-Child-Development-Center/,Private,PK-K,,Unknown,Private,,,,True,False,False,False,Unknown,,,,,,,,,,,,
228,LongBeach,Christ Lutheran Pre-School,Unrated,"6500 East Stearns Street, Long Beach, CA, 90815",https://www.greatschools.org/california/long-beach/19953-Christ-Lutheran-Pre-School/,Private,PK,,Unknown,Private,,,,True,False,False,False,Unknown,,,,,,,,,,,,
229,LongBeach,Elby's Tots,Unrated,"5600 North Paramount Boulevard, Long Beach, CA, 90805",https://www.greatschools.org/california/long-beach/19955-Elbys-Tots/,Private,PK,,Unknown,Private,,,,True,False,False,False,Unknown,,,,,,,,,,,,
230,LongBeach,Carmelitos Child Development Center,Unrated,"851 Via Carmelitos, Long Beach, CA, 90805",https://www.greatschools.org/california/long-beach/19957-Carmelitos-Child-Development-Center/,Private,PK,,Unknown,Private,,,,True,False,False,False,Unknown,33.84835170741204,-118.18180032961476,0.0,,,,,,,,,
231,LongBeach,Little Light House Ed Child Care Center,Unrated,"909 Pine Ave, Long Beach, CA, 90813",https://www.greatschools.org/california/long-beach/19958-Little-Light-House-Ed-Child-Care-Center/,Private,PK,,Unknown,Private,,,,True,False,False,False,Unknown,33.7779958,-118.1924688,0.0,,,,,,,,,
232,LongBeach,Montessori On Elm,Unrated,"930 Elm Avenue, Long Beach, CA, 90813",https://www.greatschools.org/california/long-beach/19959-Montessori-On-Elm/,Private,1-4,32.0,Unknown,Private,,,,False,True,False,False,Unknown,33.77842914285714,-118.18755688571429,0.0,,,,,,,,,
233,LongBeach,First Lutheran Pre-School,Unrated,"946 Linden Avenue, Long Beach, CA, 90813",https://www.greatschools.org/california/long-beach/19960-First-Lutheran-Pre-School/,Private,PK,,Unknown,Private,,,,True,False,False,False,Unknown,33.77853305555556,-118.18624788888889,0.0,,,,,,,,,
234,LongBeach,Comprehensive Child Development Center,Unrated,"2565 Pacific Avenue, Long Beach, CA, 90806",https://www.greatschools.org/california/long-beach/22595-Comprehensive-Child-Development-Center/,Private,PK,,Unknown,Private,,,,True,False,False,False,Unknown,33.80371591836735,-118.19380804081634,0.0,,,,,,,,,
235,LongBeach,Muila Area 2,Unrated,"1640 Alamitos Avenue, Long Beach, CA, 90813",https://www.greatschools.org/california/long-beach/23863-Muila-Area-2/,Private,K-12,,Unknown,Private,,,,False,True,True,True,Unknown,33.787449775510204,-118.17636214285714,0.0,,,,,,,,,
236,LongBeach,Oaktree Preschool And Kindergarten,Unrated,"1710 Redondo Avenue, Long Beach, CA, 90804",https://www.greatschools.org/california/long-beach/24428-Oaktree-Preschool-And-Kindergarten/,Private,PK-K,26.0,Unknown,Private,,,,True,False,False,False,Unknown,33.78821608333333,-118.152302,0.0,,,,,,,,,
237,LongBeach,Oakwood Academy - Bixby Campus,Unrated,"3850 Long Beach Boulevard, Long Beach, CA, 90807",https://www.greatschools.org/california/long-beach/24429-Oakwood-Academy---Bixby-Campus/,Private,K-2,137.0,Unknown,Private,,,,False,True,False,False,Unknown,33.82854415384615,-118.189254,0.0,,,,,,,,,
238,LongBeach,Maple Village Waldorf School,Unrated,"4017 East 6th Street, Long Beach, CA, 90814",https://www.greatschools.org/california/long-beach/25487-Maple-Village-Waldorf-School/,Private,PK-8,118.0,Unknown,Private,,,,True,True,True,False,Unknown,33.773589242424244,-118.14559175757576,0.0,,,,,,,,,
239,LongBeach,Beach High-Intensive Learning Program,Unrated,"3701 East Willow Street, Long Beach, CA, 90815",https://www.greatschools.org/california/long-beach/25750-Beach-High-Intensive-Learning-Program/,Public district,9-12,154.0,13:1,Long Beach Unified School District,47.0,32.0,22.0,False,False,False,True,10-15,33.80444830884199,-118.14923883556462,0.0,3%,15%,3%,68%,,1%,1%,3%,6%
240,LongBeach,Reid High School,Unrated,"2153 West Hill Street, Long Beach, CA, 90810",https://www.greatschools.org/california/long-beach/2598-Reid-High-School/,Public district,11-12,208.0,24:1,Long Beach Unified School District,4.0,1.0,1.0,False,False,False,True,21-30,33.79746985,-118.218225143434,0.0,1%,17%,3%,72%,<1%,2%,1%,3%,1%
241,LongBeach,Seat of Wisdom Academy,Unrated,"3510 Farnham Avenue, Long Beach, CA, 90808",https://www.greatschools.org/california/long-beach/26018-Seat-Of-Wisdom-Academy/,Private,K-11,,Unknown,Private,,,,False,True,True,True,Unknown,33.820153128185154,-118.0637178146718,0.0,,,,,,,,,
242,LongBeach,True Social Justice Academy,Unrated,"905 Atlantic Avenue, Long Beach, CA, 90813",https://www.greatschools.org/california/long-beach/26037-True-Social-Justice-Academy/,Private,6-12,,Unknown,Private,,,,False,False,True,True,Unknown,33.7784313877551,-118.18511395918368,0.0,,,,,,,,,
243,LongBeach,First Lutheran Christian Preschool,Unrated,"905 Atlantic, Long Beach, CA, 90813",https://www.greatschools.org/california/long-beach/26449-First-Lutheran-Christian-Preschool/,Private,PK,,Unknown,Private,,,,True,False,False,False,Unknown,33.7784313877551,-118.18511395918368,0.0,,,,,,,,,
244,LongBeach,Bayshore Co-op Preschool,Unrated,"5431 E Ocean Blvd., Long Beach, CA, 90803",https://www.greatschools.org/california/long-beach/26455-Bayshore-Co-Op-Preschool/,Private,PK,,Unknown,Private,,,,True,False,False,False,Unknown,33.75306369430572,-118.13143286058946,0.0,,,,,,,,,
245,LongBeach,Barton Child Development Center,Unrated,"4310 Long Beach Boulevard #200, Long Beach, CA, 90807",https://www.greatschools.org/california/long-beach/27326-Barton-Child-Development-Center/,Private,PK,,Unknown,Private,,,,True,False,False,False,Unknown,,,,,,,,,,,,
246,LongBeach,Williams Family Child Care Center,Unrated,"1635 East 56th Street, Long Beach, CA, 90805",https://www.greatschools.org/california/long-beach/27702-Williams-Family-Child-Care-Center/,Private,PK,,Unknown,Private,,,,True,False,False,False,Unknown,33.857737829591656,-118.1728671740252,0.0,,,,,,,,,
247,LongBeach,Galicia Child Care Center,Unrated,"1339 North Peterson Avenue, Long Beach, CA, 90813",https://www.greatschools.org/california/long-beach/27704-Galicia-Child-Care-Center/,Private,PK,,Unknown,Private,,,,True,False,False,False,Unknown,,,,,,,,,,,,
248,LongBeach,Herrera Family Child Care Center,Unrated,"737 West Hill Street, Long Beach, CA, 90806",https://www.greatschools.org/california/long-beach/27705-Herrera-Family-Child-Care-Center/,Private,PK,,Unknown,Private,,,,True,False,False,False,Unknown,33.79720489795918,-118.2009014489796,0.0,,,,,,,,,
249,LongBeach,Abilty First-Newport Mesa Prog,Unrated,"3770 East Willow Street, Long Beach, CA, 90815",https://www.greatschools.org/california/long-beach/27805-Abilty-First-Newport-Mesa-Prog/,Private,PK,,Unknown,Private,,,,True,False,False,False,Unknown,33.80422014281854,-118.1488384979438,0.0,,,,,,,,,
250,LongBeach,Ymca-Grtr Lb Los Altos Brnch,Unrated,"1720 North Bellflower Boulevard, Long Beach, CA, 90815",https://www.greatschools.org/california/long-beach/27929-Ymca-Grtr-Lb-Los-Altos-Brnch/,Private,PK-K,,Unknown,Private,,,,True,False,False,False,Unknown,33.787438183673466,-118.12353730612244,0.0,,,,,,,,,
251,LongBeach,Ymca Glb-Longfellow,Unrated,"4949 Atlantic Avenue, Long Beach, CA, 90805",https://www.greatschools.org/california/long-beach/27978-Ymca-Glb-Longfellow/,Private,PK,,Unknown,Private,,,,True,False,False,False,Unknown,33.846064262626264,-118.1850435050505,0.0,,,,,,,,,
252,LongBeach,Silver Bear Pre-School,Unrated,"2700 East 7th Street, Long Beach, CA, 90804",https://www.greatschools.org/california/long-beach/28193-Silver-Bear-Pre-School/,Private,PK,,Unknown,Private,,,,True,False,False,False,Unknown,33.775253,-118.159901,0.0,,,,,,,,,
253,LongBeach,St Lucy Pre-School,Unrated,"2320 Cota Avenue, Long Beach, CA, 90810",https://www.greatschools.org/california/long-beach/28360-St-Lucy-Pre-School/,Private,PK,,Unknown,Private,,,,True,False,False,False,Unknown,33.79925919649507,-118.21642625353353,0.0,,,,,,,,,
254,LongBeach,Webster Head Start,Unrated,"1755 West 32nd Way, Long Beach, CA, 90810",https://www.greatschools.org/california/long-beach/28753-Webster-Head-Start/,Private,PK-K,,Unknown,Private,,,,True,False,False,False,Unknown,33.81622255102041,-118.21590402040816,0.0,,,,,,,,,
255,LongBeach,Bundle Of Joy Day Care Center,Unrated,"4829 Long Beach Boulevard, Long Beach, CA, 90805",https://www.greatschools.org/california/long-beach/29046-Bundle-Of-Joy-Day-Care-Center/,Private,PK,,Unknown,Private,,,,True,False,False,False,Unknown,33.844306,-118.19304128571429,0.0,,,,,,,,,
256,LongBeach,Mccraw Family Day Care Center,Unrated,"250 East 68th Street, Long Beach, CA, 90805",https://www.greatschools.org/california/long-beach/29070-Mccraw-Family-Day-Care-Center/,Private,PK,,Unknown,Private,,,,True,False,False,False,Unknown,33.877623132363375,-118.1987126551823,0.0,,,,,,,,,
257,LongBeach,St Pauls Lutheran Pre-School,Unrated,"2285 Palo Verde Avenue, Long Beach, CA, 90815",https://www.greatschools.org/california/long-beach/29265-St-Pauls-Lutheran-Pre-School/,Private,PK,,Unknown,Private,,,,True,False,False,False,Unknown,33.7982491,-118.1080141,0.0,,,,,,,,,
258,LongBeach,St Clair Child Care Center,Unrated,"2900 East 56th Way, Long Beach, CA, 90805",https://www.greatschools.org/california/long-beach/29633-St-Clair-Child-Care-Center/,Private,PK,,Unknown,Private,,,,True,False,False,False,Unknown,33.858494,-118.157558,0.0,,,,,,,,,
259,LongBeach,Elliott Day Care,Unrated,"2114 Stevely Avenue, Long Beach, CA, 90815",https://www.greatschools.org/california/long-beach/29695-Elliott-Day-Care/,Private,PK,,Unknown,Private,,,,True,False,False,False,Unknown,33.79417395544198,-118.09160213649552,0.0,,,,,,,,,
260,LongBeach,Tucker Head Start,Unrated,"Orange Avenue, Long Beach, CA, 90755",https://www.greatschools.org/california/long-beach/29706-Tucker-Head-Start/,Private,PK,,Unknown,Private,,,,True,False,False,False,Unknown,33.7969194,-118.1763422,0.0,,,,,,,,,
261,LongBeach,Rainbow In A Cloud Cdc,Unrated,"Po Box 40117, Long Beach, CA, 90804",https://www.greatschools.org/california/long-beach/29730-Rainbow-In-A-Cloud-Cdc/,Private,PK,,Unknown,Private,,,,True,False,False,False,Unknown,,,,,,,,,,,,
262,LongBeach,Cdi Head Start -Small World,Unrated,"Po Box 5517, Long Beach, CA, 90805",https://www.greatschools.org/california/long-beach/29760-Cdi-Head-Start--Small-World/,Private,PK,,Unknown,Private,,,,True,False,False,False,Unknown,,,,,,,,,,,,
263,LongBeach,Cdi Head Start-Randle,Unrated,"Po Box 5517, Long Beach, CA, 90805",https://www.greatschools.org/california/long-beach/29762-Cdi-Head-Start-Randle/,Private,PK,,Unknown,Private,,,,True,False,False,False,Unknown,,,,,,,,,,,,
264,LongBeach,Cdi Head Start-Bethune,Unrated,"Po Box 5517, Long Beach, CA, 90805",https://www.greatschools.org/california/long-beach/29763-Cdi-Head-Start-Bethune/,Private,PK,,Unknown,Private,,,,True,False,False,False,Unknown,,,,,,,,,,,,
265,LongBeach,Cdi Head Start-Mary B Henry,Unrated,"Po Box 5517, Long Beach, CA, 90805",https://www.greatschools.org/california/long-beach/29765-Cdi-Head-Start-Mary-B-Henry/,Private,PK,,Unknown,Private,,,,True,False,False,False,Unknown,,,,,,,,,,,,
266,LongBeach,Cdi Head Start-Cesar Chavez,Unrated,"Po Box 5517, Long Beach, CA, 90805",https://www.greatschools.org/california/long-beach/29770-Cdi-Head-Start-Cesar-Chavez/,Private,PK,,Unknown,Private,,,,True,False,False,False,Unknown,,,,,,,,,,,,
267,LongBeach,Cdi Head Start-Bright Stars,Unrated,"Po Box 5517, Long Beach, CA, 90805",https://www.greatschools.org/california/long-beach/29771-Cdi-Head-Start-Bright-Stars/,Private,PK,,Unknown,Private,,,,True,False,False,False,Unknown,,,,,,,,,,,,
268,LongBeach,Elm Street Head Start,Unrated,"1425 Elm Avenue, Long Beach, CA, 90813",https://www.greatschools.org/california/long-beach/29902-Elm-Street-Head-Start/,Private,PK,,Unknown,Private,,,,True,False,False,False,Unknown,33.78435244897959,-118.18809173469388,0.0,,,,,,,,,
269,LongBeach,Sesson Child Care Center,Unrated,"189 East Ellis Street, Long Beach, CA, 90805",https://www.greatschools.org/california/long-beach/29972-Sesson-Child-Care-Center/,Private,PK,,Unknown,Private,,,,True,False,False,False,Unknown,33.856832749999995,-118.19224225,0.0,,,,,,,,,
270,LongBeach,Ices Education Child Care Center-Birney,Unrated,"Po Box 3033, Long Beach, CA, 90803",https://www.greatschools.org/california/long-beach/29997-Ices-Education-Child-Care-Center-Birney/,Private,PK,,Unknown,Private,,,,True,False,False,False,Unknown,,,,,,,,,,,,
271,LongBeach,Little Owl Pre-School,Unrated,"3426 Linden Avenue, Long Beach, CA, 90813",https://www.greatschools.org/california/long-beach/30277-Little-Owl-Pre-School/,Private,PK,,Unknown,Private,,,,True,False,False,False,Unknown,33.81927393877551,-118.18635446938777,0.0,,,,,,,,,
272,LongBeach,Un Mundo De Amigos Pre-School,Unrated,"1480 Long Beach Boulevard, Long Beach, CA, 90813",https://www.greatschools.org/california/long-beach/30297-Un-Mundo-De-Amigos-Pre-School/,Private,PK,,Unknown,Private,,,,True,False,False,False,Unknown,33.7851192195122,-118.18928619512197,0.0,,,,,,,,,
273,LongBeach,Kidz R Us Community Child Care Center,Unrated,"1115 East Market Street, Long Beach, CA, 90805",https://www.greatschools.org/california/long-beach/30377-Kidz-R-Us-Community-Child-Care-Center/,Private,PK,,Unknown,Private,,,,True,False,False,False,Unknown,33.85444210526316,-118.178725,0.0,,,,,,,,,
274,LongBeach,Fun 2 Learn Pre-School,Unrated,"5942 Orange Avenue, Long Beach, CA, 90805",https://www.greatschools.org/california/long-beach/30386-Fun-2-Learn-Pre-School/,Private,PK,,Unknown,Private,,,,True,False,False,False,Unknown,33.86306311764706,-118.1771995882353,0.0,,,,,,,,,
275,LongBeach,Creative Minds Christian Academy,Unrated,"6380 Orange Avenue, Long Beach, CA, 90805",https://www.greatschools.org/california/long-beach/30396-Creative-Minds-Christian-Academy/,Private,PK,,Unknown,Private,,,,True,False,False,False,Unknown,33.870527,-118.177249,0.0,,,,,,,,,
276,LongBeach,All About Kids Learning Center,Unrated,"1310 East Artesia Boulevard, Long Beach, CA, 90805",https://www.greatschools.org/california/long-beach/30404-All-About-Kids-Learning-Center/,Private,PK,,Unknown,Private,,,,True,False,False,False,Unknown,33.87452945762712,-118.17640425423728,0.0,,,,,,,,,
277,LongBeach,Bixby Oaks Child Care Center,Unrated,"3832 Long Beach Boulevard, Long Beach, CA, 90807",https://www.greatschools.org/california/long-beach/30446-Bixby-Oaks-Child-Care-Center/,Private,PK,,Unknown,Private,,,,True,False,False,False,Unknown,33.827881727272725,-118.18925481818182,0.0,,,,,,,,,
278,LongBeach,Open Door Enrichment Child Care Center,Unrated,"132 East Artesia Boulevard, Long Beach, CA, 90805",https://www.greatschools.org/california/long-beach/30463-Open-Door-Enrichment-Child-Care-Center/,Private,PK,,Unknown,Private,,,,True,False,False,False,Unknown,33.87419530612245,-118.2019693265306,0.0,,,,,,,,,
279,LongBeach,Spectrum Center- Long Beach Middle Market Street,Unrated,"1022 East Market Street, Long Beach, CA, 90805",https://www.greatschools.org/california/long-beach/33156-Spectrum-Center--Long-Beach-Middle-Market-Street/,Private,K-12,114.0,Unknown,Private,,,,False,True,True,True,Unknown,33.854431657894736,-118.18047868421051,0.0,,,,,,,,,
280,LongBeach,St Cornelius Elementary,Unrated,"3330 North Bellflower Boulevard, Long Beach, CA, 90808",https://www.greatschools.org/california/long-beach/33159-St-Cornelius-Elementary/,Private,PK-8,327.0,Unknown,Private,,,,True,True,True,False,Unknown,33.7882985,-118.1242461,0.0,,,,,,,,,
281,LongBeach,United Faith Community Day Care Center,Unrated,"6934 Long Beach Boulevard, Long Beach, CA, 90805",https://www.greatschools.org/california/long-beach/33198-United-Faith-Community-Day-Care-Center/,Private,PK-2,19.0,Unknown,Private,,,,True,True,False,False,Unknown,33.87996178947368,-118.20433778947368,0.0,,,,,,,,,
282,LongBeach,Bethany Baptist Elementary,Unrated,"2244 Clark Avenue, Long Beach, CA, 90815",https://www.greatschools.org/california/long-beach/33386-Bethany-Baptist-Elementary/,Private,PK-8,232.0,Unknown,Private,,,,True,True,True,False,Unknown,33.7961587,-118.1340178,0.0,,,,,,,,,
283,LongBeach,Holy Innocents Elementary School,Unrated,"2500 Pacific Avenue, Long Beach, CA, 90806",https://www.greatschools.org/california/long-beach/7865-Holy-Innocents-Elementary-School/,Private,K-8,203.0,Unknown,Private,,,,False,True,True,False,Unknown,33.802687,-118.193612,0.0,,,,,,,,,
284,LongBeach,St. Anthony Elementary School,Unrated,"855 East 5th Street, Long Beach, CA, 90802",https://www.greatschools.org/california/long-beach/7866-St.-Anthony-Elementary-School/,Private,PK-8,234.0,Unknown,Private,,,,True,True,True,False,Unknown,33.773004388888886,-118.18127016666666,0.0,,,,,,,,,
285,LongBeach,St. Athanasius Elementary School,Unrated,"5377 Linden Avenue, Long Beach, CA, 90805",https://www.greatschools.org/california/long-beach/7867-St.-Athanasius-Elementary-School/,Private,K-8,120.0,Unknown,Private,,,,False,True,True,False,Unknown,33.854219,-118.1859597,0.0,,,,,,,,,
286,LongBeach,St. Cornelius Elementary School,Unrated,"3330 North Bellflower Boulevard, Long Beach, CA, 90808",https://www.greatschools.org/california/long-beach/7868-St.-Cornelius-Elementary-School/,Private,K-8,326.0,Unknown,Private,,,,False,True,True,False,Unknown,33.7882985,-118.1242461,0.0,,,,,,,,,
287,LongBeach,Saint Anthony High School,Unrated,"620 Olive Avenue, Long Beach, CA, 90802",https://www.greatschools.org/california/long-beach/7987-Saint-Anthony-High-School/,Private,9-12,472.0,Unknown,Private,,,,False,False,False,True,Unknown,33.77480548780488,-118.18229,0.0,,,,,,,,,
288,LongBeach,St. Joseph Elementary School,Unrated,"6200 East Willow Street, Long Beach, CA, 90815",https://www.greatschools.org/california/long-beach/8002-St.-Joseph-Elementary-School/,Private,K-8,308.0,Unknown,Private,,,,False,True,True,False,Unknown,33.803149,-118.11084,0.0,,,,,,,,,
289,LongBeach,St. Cyprian Elementary School,Unrated,"5133 East Arbor Road, Long Beach, CA, 90808",https://www.greatschools.org/california/long-beach/8003-St.-Cyprian-Elementary-School/,Private,PK-8,281.0,Unknown,Private,,,,True,True,True,False,Unknown,,,,,,,,,,,,
290,LongBeach,St. Maria Goretti,Unrated,"3950 Palo Verde Avenue, Long Beach, CA, 90808",https://www.greatschools.org/california/long-beach/8019-St.-Maria-Goretti/,Private,PK-8,161.0,Unknown,Private,,,,True,True,True,False,Unknown,33.82940215870572,-118.10767491159234,0.0,,,,,,,,,
291,LongBeach,Our Lady Of Refuge,Unrated,"5210 East Los Coyotes Diagonal, Long Beach, CA, 90815",https://www.greatschools.org/california/long-beach/8034-Our-Lady-Of-Refuge/,Private,K-8,247.0,Unknown,Private,,,,False,True,True,False,Unknown,33.7992976,-118.1300753,0.0,,,,,,,,,
292,LongBeach,St. Lucy School,Unrated,"2320 Cota Avenue, Long Beach, CA, 90810",https://www.greatschools.org/california/long-beach/8056-St.-Lucy-School/,Private,K-8,166.0,Unknown,Private,,,,False,True,True,False,Unknown,33.79925919649507,-118.21642625353353,0.0,,,,,,,,,
293,LongBeach,Bethany Lutheran School,Unrated,"5100 East Arbor Road, Long Beach, CA, 90808",https://www.greatschools.org/california/long-beach/8649-Bethany-Lutheran-School/,Private,K-8,193.0,Unknown,Private,,,,False,True,True,False,Unknown,,,,,,,,,,,,
294,LongBeach,Grace Christian School,Unrated,"3601 Linden Avenue, Long Beach, CA, 90807",https://www.greatschools.org/california/long-beach/8803-Grace-Christian-School/,Private,K-6,151.0,Unknown,Private,,,,False,True,True,False,Unknown,33.822273,-118.186548,0.0,,,,,,,,,
295,LongBeach,Nazarene Christian,Unrated,"5253 Los Coyotes Diagonal, Long Beach, CA, 90815",https://www.greatschools.org/california/long-beach/8974-Nazarene-Christian/,Private,K-8,,Unknown,Private,,,,False,True,True,False,Unknown,33.7947118,-118.1356613,0.0,,,,,,,,,
296,LongBeach,Lakewood Christian Schools,Unrated,"5336 East Arbor Road, Long Beach, CA, 90808",https://www.greatschools.org/california/long-beach/9192-Lakewood-Christian-Schools/,Private,K-8,307.0,Unknown,Private,,,,False,True,True,False,Unknown,,,,,,,,,,,,
297,LongBeach,Gethsemane Baptist Christian,Unrated,"6095 Orange Avenue, Long Beach, CA, 90805",https://www.greatschools.org/california/long-beach/9196-Gethsemane-Baptist-Christian/,Private,PK-10,85.0,Unknown,Private,,,,True,True,True,True,Unknown,33.865364953488374,-118.1774108139535,0.0,,,,,,,,,
298,LongBeach,Los Altos Brethren School,Unrated,"6565 East Stearns Street, Long Beach, CA, 90815",https://www.greatschools.org/california/long-beach/9203-Los-Altos-Brethren-School/,Private,PK-6,180.0,Unknown,Private,,,,True,True,True,False,Unknown,,,,,,,,,,,,
299,LongBeach,Montessori Children's House School,Unrated,"5550 East Atherton Street, Long Beach, CA, 90815",https://www.greatschools.org/california/long-beach/9349-Montessori-Childrens-House-School/,Private,PK-6,70.0,Unknown,Private,,,,True,True,True,False,Unknown,33.7886839,-118.0940163,0.0,,,,,,,,,
300,LongBeach,Creative Arts School,Unrated,"1423 Walnut Avenue, Long Beach, CA, 90813",https://www.greatschools.org/california/long-beach/9374-Creative-Arts-School/,Private,PK,45.0,Unknown,Private,,,,True,False,False,False,Unknown,33.784890346938774,-118.17208632653062,0.0,,,,,,,,,
301,LongBeach,Regency High School,Unrated,"490 West 14th Street, Long Beach, CA, 90813",https://www.greatschools.org/california/long-beach/9862-Regency-High-School/,Private,8-12,42.0,Unknown,Private,,,,False,False,True,True,Unknown,33.78359232653061,-118.19775573469389,0.0,,,,,,,,,
302,Bellflower,Albert Baxter Elementary School,6,"14929 Cerritos Avenue, Bellflower, CA, 90706",https://www.greatschools.org/california/bellflower/1538-Albert-Baxter-Elementary-School/,Public district,K-6,370.0,27:1,Bellflower Unified School District,45.0,39.0,21.0,False,True,False,False,21-30,33.900315,-118.138301,0.0,4%,6%,2%,82%,,1%,1%,1%,3%
303,Bellflower,Bellflower High School,5,"15301 McNab Avenue, Bellflower, CA, 90706",https://www.greatschools.org/california/bellflower/1539-Bellflower-High-School/,Public district,7-12,2434.0,25:1,Bellflower Unified School District,41.0,16.0,14.0,False,False,True,True,21-30,33.893060750000004,-118.11518600532531,0.0,2%,10%,3%,79%,<1%,<1%,1%,2%,3%
304,Bellflower,Thomas Jefferson Elementary School,5,"10027 Rose Street, Bellflower, CA, 90706",https://www.greatschools.org/california/bellflower/1542-Thomas-Jefferson-Elementary-School/,Public district,K-6,515.0,27:1,Bellflower Unified School District,36.0,28.0,19.0,False,True,False,False,21-30,33.869755732568,-118.11988614293962,0.0,4%,15%,5%,68%,<1%,2%,1%,1%,4%
305,Bellflower,Ramona Elementary School,5,"9351 Laurel Street, Bellflower, CA, 90706",https://www.greatschools.org/california/bellflower/1547-Ramona-Elementary-School/,Public district,K-6,534.0,26:1,Bellflower Unified School District,35.0,27.0,12.0,False,True,False,False,21-30,33.883029957037536,-118.13523557418752,0.0,2%,13%,3%,77%,<1%,2%,1%,,2%
306,Bellflower,Ernie Pyle Elementary School,4,"14500 Woodruff Avenue, Bellflower, CA, 90706",https://www.greatschools.org/california/bellflower/1546-Ernie-Pyle-Elementary-School/,Public district,K-6,449.0,31:1,Bellflower Unified School District,39.0,23.0,6.0,False,True,False,False,30+,33.900564,-118.116535,0.0,3%,15%,5%,69%,1%,1%,2%,,4%
307,Bellflower,Washington Elementary School,3,"9725 Jefferson Street, Bellflower, CA, 90706",https://www.greatschools.org/california/bellflower/1549-Washington-Elementary-School/,Public district,K-6,762.0,32:1,Bellflower Unified School District,26.0,12.0,16.0,False,True,False,False,30+,33.89307377551021,-118.1271118367347,0.0,2%,9%,2%,80%,<1%,<1%,1%,1%,5%
308,Bellflower,Frank E. Woodruff Elementary School,3,"15332 Eucalyptus Avenue, Bellflower, CA, 90706",https://www.greatschools.org/california/bellflower/1551-Frank-E.-Woodruff-Elementary-School/,Public district,K-6,483.0,28:1,Bellflower Unified School District,22.0,11.0,8.0,False,True,False,False,21-30,33.89450474659017,-118.12191341790958,0.0,3%,14%,3%,72%,1%,<1%,2%,1%,4%
309,Bellflower,Adventist Union School,Unrated,"15548 Santa Ana Avenue, Bellflower, CA, 90706",https://www.greatschools.org/california/bellflower/10619-Adventist-Union-School/,Private,K-8,60.0,Unknown,Private,,,,False,True,True,False,Unknown,33.892626270072995,-118.1360688540146,0.0,,,,,,,,,
310,Bellflower,Southland Christian Academy,Unrated,"16400 Woodruff Avenue, Bellflower, CA, 90706",https://www.greatschools.org/california/bellflower/11263-Southland-Christian-Academy/,Private,PK-6,153.0,Unknown,Private,,,,True,True,True,False,Unknown,33.8896514,-118.1173982,0.0,,,,,,,,,
311,Bellflower,Christ Heritage Academy,Unrated,"10248 Alondra Boulevard, Bellflower, CA, 90706",https://www.greatschools.org/california/bellflower/11550-Christ-Heritage-Academy/,Private,K-6,22.0,Unknown,Private,,,,False,True,True,False,Unknown,33.88928226013335,-118.11621593958355,0.0,,,,,,,,,
312,Bellflower,Bellflower Alternative Education Center,Unrated,"16703 Clark Avenue, Bellflower, CA, 90706",https://www.greatschools.org/california/bellflower/13824-Bellflower-Alternative-Education-Center/,Public district,K-12,11.0,4:1,Bellflower Unified School District,9.0,9.0,,False,True,True,True,<10,33.882826652770866,-118.13403694014696,0.0,,9%,,91%,,,,,
313,Bellflower,Somerset Continuation High School,Unrated,"9243 Laurel St, Bellflower, CA 90706",https://www.greatschools.org/california/bellflower/1548-Somerset-Continuation-High-School/,Public district,7-12,183.0,17:1,Bellflower Unified School District,9.0,1.0,1.0,False,False,True,True,16-20,33.88302687972691,-118.13752385931518,0.0,1%,17%,1%,67%,1%,1%,2%,,10%
314,Bellflower,Creative Day Academy,Unrated,"8740 Ramona Street, Bellflower, CA, 90706",https://www.greatschools.org/california/bellflower/15736-Creative-Day-Academy/,Private,PK,86.0,Unknown,Private,,,,True,False,False,False,Unknown,33.87285,-118.145346,0.0,,,,,,,,,
315,Bellflower,Veritas Christian School,Unrated,"9250 Harvard Street, Bellflower, CA, 90706",https://www.greatschools.org/california/bellflower/16180-Veritas-Christian-School/,Private,K-12,,Unknown,Private,,,,False,True,True,True,Unknown,33.88788629411765,-118.13683588235294,0.0,,,,,,,,,
316,Bellflower,Whole Heart Christian Academy,Unrated,"PO Box 39, Bellflower, CA, 90707",https://www.greatschools.org/california/bellflower/16190-Whole-Heart-Christian-Academy/,Private,K-12,29.0,Unknown,Private,,,,False,True,True,True,Unknown,,,,,,,,,,,,
317,Bellflower,Ymca-Los Cerritos,Unrated,"15530 Woodruff Avenue, Bellflower, CA, 90706",https://www.greatschools.org/california/bellflower/17933-Ymca-Los-Cerritos/,Private,PK-K,,Unknown,Private,,,,True,False,False,False,Unknown,33.8896514,-118.1173982,0.0,,,,,,,,,
318,Bellflower,Golden West Pre-School,Unrated,"10248 Alondra Boulevard, Bellflower, CA, 90706",https://www.greatschools.org/california/bellflower/18075-Golden-West-Pre-School/,Private,PK-K,,Unknown,Private,,,,True,False,False,False,Unknown,33.88928226013335,-118.11621593958355,0.0,,,,,,,,,
319,Bellflower,Ernie Pyle Head Start Center,Unrated,"16703 Clark Avenue, Bellflower, CA, 90706",https://www.greatschools.org/california/bellflower/18076-Ernie-Pyle-Head-Start-Center/,Private,PK,,Unknown,Private,,,,True,False,False,False,Unknown,33.882826652770866,-118.13403694014696,0.0,,,,,,,,,
320,Bellflower,Bellflower United Methodist Pre-School,Unrated,"14525 Bellflower Boulevard, Bellflower, CA, 90706",https://www.greatschools.org/california/bellflower/18077-Bellflower-United-Methodist-Pre-School/,Private,PK,,Unknown,Private,,,,True,False,False,False,Unknown,33.89996841386024,-118.12540949281474,0.0,,,,,,,,,
321,Bellflower,First Christian Church Dc,Unrated,"Po Box 759, Bellflower, CA, 90707",https://www.greatschools.org/california/bellflower/18078-First-Christian-Church-Dc/,Private,PK,,Unknown,Private,,,,True,False,False,False,Unknown,,,,,,,,,,,,
322,Bellflower,Thomas Jefferson Ex Head Start,Unrated,"9980 Cedar Street, Bellflower, CA, 90706",https://www.greatschools.org/california/bellflower/18079-Thomas-Jefferson-Ex-Head-Start/,Private,PK,,Unknown,Private,,,,True,False,False,False,Unknown,33.87113396153846,-118.12127592307692,0.0,,,,,,,,,
323,Bellflower,Whitewood Child Development Center,Unrated,"16703 Clark Avenue, Bellflower, CA, 90706",https://www.greatschools.org/california/bellflower/19778-Whitewood-Child-Development-Center/,Private,PK,,Unknown,Private,,,,True,False,False,False,Unknown,33.882826652770866,-118.13403694014696,0.0,,,,,,,,,
